stop_id,stop_code,stop_name,stop_lat,stop_lon
AAR006,AAR006,ALBAREDO ARNABOLDI Moranda - SP617,45.11511301,9.23715589
AAR007,AAR007,ALBAREDO ARNABOLDI Moranda - SP617,45.11487464,9.23698171
ABU002,ABU002,ALBUZZANO Barona - Partigiani/Olona,45.20875248,9.27607816
ABU003,ABU003,ALBUZZANO Barona - Partigiani/Olona,45.20879796,9.27645402
ABU004,ABU004,ALBUZZANO Barona - SP115/Cavo Marocco,45.20523393,9.27603277
ABU005,ABU005,ALBUZZANO Vigalfo - Vigalfo/Lodi,45.19586523,9.28364244
ABU006,ABU006,ALBUZZANO Vigalfo - Vigalfo/Lodi,45.19574677,9.28347002
ABU007,ABU007,ALBUZZANO Venco/Mazzini,45.18621441,9.27470441
ABU009,ABU009,ALBUZZANO Alessandrina/I Maggio,45.18788812,9.26774477
ABU010,ABU010,ALBUZZANO Alessandrina/Boffalora,45.1879849,9.26795487
ABU011,ABU011,ALBUZZANO Venco/Mazzini,45.18609486,9.27478808
ABU012,ABU012,ALBUZZANO Prelini (Cimitero),45.18508691,9.2781258
ABU013,ABU013,ALBUZZANO Prelini (Cimitero),45.18528274,9.27793929
ALO001,ALO001,ALAGNA Vittorio Veneto/Castello,45.16999073,8.88913234
ALO002,ALO002,ALAGNA Vittorio Veneto/Castello,45.16993218,8.8893936
ARP001,ARP001,ZENEVREDO Salerno - SP10,45.06862481,9.35066698
ARP003,ARP003,"ARENA PO Frega - Porticone, 7",45.09737609,9.34081327
ARP004,ARP004,"ARENA PO Frega - Porticone, 7",45.09725475,9.3407777
ARP005,ARP005,ZENEVREDO Salerno - SP10,45.06847959,9.35123603
ASS500,ASS500,ASSAGO Assago Forum M2,45.40070362,9.14613237
ASS601,ASS601,ASSAGO Assago Forum M2,45.40062697,9.14609668
ASS602,ASS602,ASSAGO Milanofiori/Assago Forum M2,45.40056454,9.14665164
BAO001,BAO001,BARBIANELLO Vittorio Emanuele (Chiesa),45.0762573,9.20531277
BAO002,BAO002,BARBIANELLO Vittorio Emanuele (Chiesa),45.07623812,9.20523507
BAT001,BAT001,BATTUDA Torradello - SP22/Giovanni Paolo II,45.26584996,9.06566503
BAT002,BAT002,BATTUDA Torradello - SP22/Giovanni Paolo II,45.26587667,9.06627372
BAT003,BAT003,BATTUDA Rebecchino/Torrino,45.27422056,9.07750879
BAT004,BAT004,BATTUDA Rebecchino/Torrino,45.27415952,9.07751692
BCO001,BCO001,BOSNASCO Groppallo (Chiesa),45.06405026,9.35749519
BCO002,BCO002,BOSNASCO Groppallo (Chiesa),45.06396784,9.35730223
BCO003,BCO003,BOSNASCO Cardazzo - Fabbrica,45.06537249,9.37733948
BCO004,BCO004,BOSNASCO Cardazzo - Fabbrica,45.06532061,9.37728521
BCO005,BCO005,BOSNASCO Sparano Superiore - SP61,45.04918817,9.34882684
BCO006,BCO006,BOSNASCO Sparano Superiore - SP61,45.04890392,9.34898026
BCO007,BCO007,BOSNASCO Cascina Lupa (Franza),45.05760824,9.36002163
BCO008,BCO008,BOSNASCO Cascina Lupa (Franza),45.05733857,9.35994193
BDP001,BDP001,BADIA PAVESE Roma (Comune),45.12111953,9.46803367
BDP002,BDP002,BADIA PAVESE Roma (Comune),45.12148999,9.46846475
BEG001,BEG001,BELGIOIOSO Garibaldi (Comune),45.16245928,9.31458371
BEG002,BEG002,BELGIOIOSO Garibaldi (Comune),45.1623561,9.3145148
BEG003,BEG003,BELGIOIOSO Criminali/Nenni,45.15691954,9.31915535
BEG004,BEG004,BELGIOIOSO Dante/Natta (Zona Industriale),45.16281131,9.28848133
BEG005,BEG005,BELGIOIOSO Dante/Natta (Zona Industriale),45.16192442,9.29317948
BEG006,BEG006,BELGIOIOSO Dante/Da Barbiano,45.16049174,9.30810411
BEG007,BEG007,BELGIOIOSO Dante/Leopardi,45.16066498,9.30795237
BEG008,BEG008,BELGIOIOSO Vittorio Veneto (Castello),45.16088612,9.31434294
BEG009,BEG009,BELGIOIOSO Vittorio Veneto (Castello),45.16053308,9.31419557
BEG011,BEG011,BELGIOIOSO XX Settembre/Ghinaglia,45.15883766,9.32003425
BEG012,BEG012,BELGIOIOSO XX Settembre/Criminali,45.15937177,9.31560003
BEG013,BEG013,BELGIOIOSO XX Settembre/Criminali,45.15947518,9.31553913
BEG014,BEG014,BELGIOIOSO XX Settembre/Ghinaglia,45.15871906,9.32013509
BEG015,BEG015,BELGIOIOSO Zagonara - SP234,45.15674885,9.35201787
BEG016,BEG016,BELGIOIOSO Zagonara - SP234,45.15664811,9.35224738
BEG018,BEG018,BELGIOIOSO Criminali/Nenni,45.15703394,9.31869769
BEO001,BEO001,BEREGUARDO Vigna del Pero - SP130,45.23701963,9.04410124
BEO002,BEO002,BEREGUARDO Vigna del Pero - SP130,45.23710632,9.04414222
BEO003,BEO003,TORRE D'ISOLA Vigna del Pero - Boffalora,45.23983107,9.03968653
BEO004,BEO004,BEREGUARDO Vigna del Pero - Boffalora,45.23993278,9.03950794
BEO005,BEO005,TRIVOLZIO Pavia/Roma,45.2543862,9.03695014
BEO006,BEO006,TRIVOLZIO Pavia/Roma,45.25468073,9.03667518
BEO007,BEO007,BEREGUARDO Zelata - Della Chiesa,45.26314774,9.0035396
BEO008,BEO008,BEREGUARDO Zelata - Della Chiesa,45.26321041,9.00363412
BEO009,BEO009,BEREGUARDO Morianino - SP130,45.24452082,9.0366439
BEO010,BEO010,BEREGUARDO Morianino - SP130,45.24445217,9.03663423
BEO011,BEO011,BEREGUARDO Quartiere Villette/Pavia,45.25445737,9.03635929
BEO012,BEO012,BEREGUARDO Partigiani/Verdi,45.25693167,9.03123018
BEO013,BEO013,BEREGUARDO Partigiani/Verdi,45.25709941,9.03100982
BEO014,BEO014,BEREGUARDO Patrioti,45.25821437,9.02691984
BEO015,BEO015,BEREGUARDO Patrioti,45.25814947,9.0274864
BEO016,BEO016,BEREGUARDO Quartiere Villette/Pavia,45.2541293,9.03632286
BIA002,BIA002,BAGNARIA IV Novembre (Municipio),44.82575926,9.12362482
BIA003,BIA003,BAGNARIA IV Novembre (Municipio),44.82566387,9.12349611
BIA004,BIA004,BAGNARIA Ponte Crenna - Roma/Manzoni,44.82340188,9.15484314
BIA005,BIA005,BAGNARIA Ponte Crenna - Roma/Manzoni,44.82330499,9.1554606
BIA006,BIA006,BAGNARIA Colombaia - SP461,44.83464285,9.11635724
BIA007,BIA007,BAGNARIA Colombaia - SP461,44.83523726,9.11508353
BIA008,BIA008,BAGNARIA SP461 (Lazzuola),44.82484611,9.1708294
BIA009,BIA009,BAGNARIA SP461 (Lazzuola),44.82466821,9.17079455
BIA010,BIA010,BAGNARIA Casa Arcano - SP461,44.82341946,9.13976321
BIA011,BIA011,BAGNARIA Casa Arcano - SP461,44.82372539,9.14210794
BIA012,BIA012,BAGNARIA IV Novembre/Rio Castello,44.82779602,9.12106
BIA013,BIA013,BAGNARIA IV Novembre/Rio Castello,44.8282566,9.12102663
BIA014,BIA014,"BAGNARIA IV Novembre, 20",44.82369576,9.12724784
BIA015,BIA015,"BAGNARIA IV Novembre, 20",44.82360954,9.12717444
BIA016,BIA016,BAGNARIA Spizzirò - SP461,44.83824436,9.11125705
BIA017,BIA017,BAGNARIA Spizzirò - SP461,44.8382586,9.11097267
BIN001,BIN001,BINASCO Autostazione (direzione Milano),45.33115287,9.10157405
BIN002,BIN002,BINASCO Autostazione (direzione Pavia),45.33099249,9.10159487
BLO001,BLO001,BORGARELLO Corbellini (Municipio),45.23965005,9.14033593
BLO002,BLO002,BORGARELLO Pavia/Dante,45.2396991,9.13655965
BMO001,BMO001,BORGORATTO MORMOROLO Ca' Bernocchi - Gabbione,44.94710683,9.1894395
BMO002,BMO002,BORGORATTO MORMOROLO Inveriaghi - SP203,44.92461841,9.19534634
BMO003,BMO003,BORGORATTO MORMOROLO Roma/Libertà (Municipio),44.93134255,9.19289139
BMO004,BMO004,BORGORATTO MORMOROLO Cà Bernocchi - SP203,44.94373577,9.18834079
BMO005,BMO005,BORGORATTO MORMOROLO Roma/Libertà (Municipio),44.93129177,9.19302421
BMO006,BMO006,BORGORATTO MORMOROLO Inveriaghi - SP203,44.92481483,9.1953953
BMO007,BMO007,BORGORATTO MORMOROLO Ca' Bernocchi - Gabbione,44.94709624,9.18939557
BMO008,BMO008,BORGORATTO MORMOROLO Braglia - SP203,44.93913278,9.18996338
BMO009,BMO009,BORGORATTO MORMOROLO Braglia - SP203,44.93910753,9.18990383
BMO010,BMO010,BORGORATTO MORMOROLO Zebedo (Cappelletta),44.93111144,9.18836105
BMO012,BMO012,BORGORATTO MORMOROLO Cà Bernocchi - SP203,44.94366567,9.18856431
BMO013,BMO013,BORGORATTO MORMOROLO SP203 - località Chiesa,44.92772857,9.19700792
BMO014,BMO014,BORGORATTO MORMOROLO SP203 - località Chiesa,44.92778596,9.19714766
BPN001,BPN001,"BASTIDA PANCARANA Dei Pelizza, 8A",45.08533376,9.08216421
BPN002,BPN002,"BASTIDA PANCARANA Dei Pelizza, 8A",45.08544351,9.08195033
BPN003,BPN003,PANCARANA Vittorio Veneto/Dante,45.07670894,9.05401341
BPN004,BPN004,PANCARANA Vittorio Veneto/Dante,45.07677309,9.05400622
BPN005,BPN005,BASTIDA PANCARANA Lungargine/Del Bò,45.08303349,9.07648103
BPN006,BPN006,BASTIDA PANCARANA Lungargine/Del Bò,45.08285207,9.07650048
BPN007,BPN007,"BASTIDA PANCARANA Roma, 25/30",45.08164315,9.08803296
BPN008,BPN008,"BASTIDA PANCARANA Roma, 25/30",45.08158609,9.08790176
BPR001,BPR001,BORGO PRIOLO Cappelletta - SP203,44.97315648,9.12781168
BPR002,BPR002,BORGO PRIOLO Canova (Bivio Staghiglione),44.9583664,9.15987375
BPR003,BPR003,BORGO PRIOLO Cribellati (Municipio),44.96656098,9.14758013
BPR004,BPR004,BORGO PRIOLO Cappelletta - SP203,44.97506732,9.12522624
BPR005,BPR005,BORGO PRIOLO Cappelletta (Olesi),44.97820747,9.11922515
BPR006,BPR006,BORGO PRIOLO Schizzola - SP20,44.93506838,9.11906339
BPR007,BPR007,BORGO PRIOLO Rivazza,44.98998172,9.10948233
BPR008,BPR008,BORGO PRIOLO Cappelletta (Olesi),44.97818674,9.11906227
BPR009,BPR009,BORGO PRIOLO Ghiaia Risi - SP38,44.97072217,9.15782973
BPR010,BPR010,BORGO PRIOLO Canova (Bivio Staghiglione),44.95819074,9.16030092
BPR011,BPR011,BORGO PRIOLO Rivazza,44.98983064,9.10935871
BPR012,BPR012,BORGO PRIOLO Ghiaia Risi - SP38,44.97059068,9.15739776
BPR013,BPR013,BORGO PRIOLO SP38/Maestra (Cribellati),44.96686602,9.14729909
BPR014,BPR014,BORGO PRIOLO SP38/Maestra (Cribellati),44.96653936,9.14754283
BPR015,BPR015,BORGO PRIOLO Casa Coste,44.98452395,9.112393
BPR016,BPR016,BORGO PRIOLO Casa Coste,44.98390336,9.11277337
BRB004,BRB004,BRESSANA BOTTARONE Dante/Matteotti,45.08921544,9.11659417
BRB010,BRB010,BRESSANA BOTTARONE IV Novembre/Nenni,45.07037173,9.13422217
BRB011,BRB011,BRESSANA BOTTARONE De Pretis/IV Novembre,45.07798328,9.13690224
BRB012,BRB012,"BRESSANA BOTTARONE Via IV Novembre, 26",45.0754112,9.13583935
BRB014,BRB014,BRESSANA BOTTARONE Via Dante Alighieri 35,45.08511978,9.11349249
BRL001,BRL001,BRALLO DI PREGOLA Pratolungo - SP186,44.70863081,9.30511554
BRL002,BRL002,BRALLO DI PREGOLA Pratolungo - SP186,44.70881304,9.30500304
BRL006,BRL006,BRALLO DI PREGOLA Municipio/Del Pozzo,44.73814049,9.28150011
BRL007,BRL007,BRALLO DI PREGOLA Municipio/Del Pozzo,44.73807272,9.2814869
BRL008,BRL008,BRALLO DI PREGOLA Feligara (Giardinetto) - SP186,44.73988428,9.29747387
BRL009,BRL009,BRALLO DI PREGOLA Feligara (Giardinetto) - SP186,44.73983051,9.29786444
BRL010,BRL010,BRALLO DI PREGOLA Casone (Bivio) - SP186,44.75483104,9.26396102
BRL011,BRL011,BRALLO DI PREGOLA Casone (Bivio) - SP186,44.75477988,9.26422046
BRL012,BRL012,BRALLO DI PREGOLA Pregola (Bivio) - SP186,44.74561891,9.2783033
BRL013,BRL013,BRALLO DI PREGOLA Pregola (Bivio) - SP186,44.74556992,9.27824443
BRL014,BRL014,BRALLO DI PREGOLA Colleri (Parco Astronomico) - SP186,44.73132845,9.31037918
BRL015,BRL015,BRALLO DI PREGOLA Colleri (Parco Astronomico) - SP186,44.73136018,9.31034974
BRL016,BRL016,BRALLO DI PREGOLA Colleri (Chiesa) - SP186,44.7283222,9.30913043
BRL017,BRL017,BRALLO DI PREGOLA Colleri (Chiesa) - SP186,44.72833318,9.30908429
BRL020,BRL020,BRALLO DI PREGOLA Pregola (Chiesa) - SP89,44.75128436,9.28201071
BRL021,BRL021,BRALLO DI PREGOLA Pregola (Chiesa) - SP89,44.75123569,9.28193735
BRL022,BRL022,BRALLO DI PREGOLA Selva - Del Sole/Roma,44.73888933,9.28557035
BRL023,BRL023,BRALLO DI PREGOLA Selva - Del Sole/Roma,44.73898333,9.28565404
BRL024,BRL024,BRALLO DI PREGOLA Feligara - SP186,44.73832772,9.30070208
BRL025,BRL025,BRALLO DI PREGOLA Feligara - SP186,44.73834473,9.30086861
BRM001,BRM001,BREME Marconi,45.12700932,8.62325446
BRM002,BRM002,BREME Marconi,45.12696581,8.62321079
BRO001,BRO001,BRONI Bronese (Cimitero),45.07126963,9.26449558
BRO002,BRO002,BRONI Bronese (Cimitero),45.07143361,9.26447706
BRO004,BRO004,BRONI Emilia/Aurora,45.06068289,9.25653416
BRO005,BRO005,BRONI Marconi/Eseguiti,45.05841432,9.25025409
BRO006,BRO006,BRONI Marconi/Eseguiti,45.05852304,9.25012179
BRO007,BRO007,BRONI Garibaldi (Comune),45.06207069,9.26157709
BRO009,BRO009,BRONI SP198/Saluto,45.05176367,9.25535676
BRO010,BRO010,BRONI SP198/Saluto,45.05176533,9.25528637
BRO011,BRO011,BRONI Vescovera - SP187,45.05688208,9.2311826
BRO012,BRO012,"BRONI Emilia, 366",45.06660382,9.26591064
BRO013,BRO013,BRONI Emilia/Italia,45.06449774,9.26420148
BRO016,BRO016,BRONI Vescovera - SP187,45.0566657,9.23108441
BRO018,BRO018,BRONI Eseguiti/De Tommasi,45.05700473,9.25387771
BRO019,BRO019,BRONI Eseguiti/De Tommasi,45.05679804,9.2541344
BRO020,BRO020,BRONI Emilia/Italia,45.06432639,9.26380836
BSE001,BSE001,BASCAPE' Della Repubblica (Comune),45.30761978,9.31237557
BSE002,BSE002,BASCAPE' Della Repubblica (Comune),45.30745209,9.31255656
BSE003,BSE003,BASCAPE' Giretta (Campo Sportivo),45.30380108,9.31511438
BSE004,BSE004,BASCAPE' Ippolito/Bianco,45.30460525,9.31511695
BSE005,BSE005,BASCAPE' Milano/Capitoli,45.30988739,9.3097684
BSE006,BSE006,BASCAPE' Milano/Picoco,45.3093164,9.31049821
BSO001,BSO001,BORNASCO S.Rocco - SP2 (Bivio Ceranova),45.25800678,9.2335925
BSO002,BSO002,BORNASCO S.Rocco - SP2 (Bivio Ceranova),45.25894333,9.2341377
BSO003,BSO003,BORNASCO Grugnetto - SP2,45.27118786,9.23856022
BSO004,BSO004,BORNASCO Grugnetto - SP2,45.27096929,9.23837878
BSO005,BSO005,BORNASCO Gualdrasco - Trieste,45.27852623,9.20395427
BSO006,BSO006,CERANOVA S.Rocco - SP2,45.25309546,9.23287698
BSO007,BSO007,CERANOVA S.Rocco - SP2,45.253283,9.23279931
BSO008,BSO008,BORNASCO Vigentina/Verdi,45.26626,9.21812252
BSO010,BSO010,BORNASCO Gualdrasco - Preziosa/Cadore,45.28045575,9.20712884
BSR001,BSR001,BORGO S.SIRO Roma/Unità d'Italia,45.2350564,8.91228389
BSR002,BSR002,BORGO S.SIRO Torrazza - Roma/Maestra,45.2460813,8.90504185
BSR003,BSR003,BORGO S.SIRO Torrazza - Roma/Maestra,45.24579887,8.90519884
BSR004,BSR004,BORGO S.SIRO Roma/Unità d'Italia,45.23476555,8.91279977
BTE001,BTE001,BESATE Matteotti/Del Popolo,45.31164234,8.96891044
BTE003,BTE003,BESATE Molino Peschiera - SS526,45.31509298,8.96968585
BUB001,BUB001,"BUBBIANO Europa, 15",45.32834897,9.01662253
BUB002,BUB002,BUBBIANO Garibaldi/Della Beffa,45.32884336,9.01358785
BUB003,BUB003,BUBBIANO Prato Vecchio/Trieste,45.32760545,9.01035407
CAA001,CAA001,CASTELLO D'AGOGNA Milano/Fermi,45.2349355,8.69131996
CAA002,CAA002,CASTELLO D'AGOGNA Milano/Piemonte,45.23494778,8.69137946
CAE001,CAE001,CASARILE SP35 Binasco/Comunale,45.31795727,9.10576241
CAE002,CAE002,CASARILE SP35 Binasco/Comunale,45.31747446,9.10586305
CAE003,CAE003,CASARILE Da Vinci/Mascagni,45.31133216,9.10673478
CAE004,CAE004,CASARILE Da Vinci/Mascagni,45.31118905,9.10659579
CAE005,CAE005,CASARILE Puccini/Gramsci,45.32169884,9.10141703
CAE006,CAE006,CASARILE Puccini/Gramsci,45.32125499,9.10164756
CAE007,CAE007,CASARILE Puccini/Leopardi,45.31788898,9.10223797
CAE008,CAE008,CASARILE Puccini/Leopardi,45.31777533,9.10231755
CBR001,CBR001,CASTELLETTO BR. Maddalena/Biondi,45.07277231,9.09996181
CBR004,CBR004,CASTELLETTO BR. Roma/Mussini,45.07079923,9.09844835
CBR005,CBR005,CASTELLETTO BR. Roma/Casarini (Posta),45.07174669,9.09858324
CBR006,CBR006,CASTELLETTO BR. Longhi/Vallone,45.07030904,9.10024587
CBR008,CBR008,CASTELLETTO BR. Maddalena/Biondi,45.0724455,9.10019932
CBR009,CBR009,CASTELLETTO BR. Case Nuove,45.07709891,9.09312507
CBR010,CBR010,CASTELLETTO BR. Case Nuove,45.07678927,9.09321515
CBR013,CBR013,CASTELLETTO BR. Bassino - SP96,45.07432593,9.11802479
CBR014,CBR014,CASTELLETTO BR. Bassino - SP96,45.07422807,9.11819199
CCI001,CCI001,GODIASCO Costiola (Bivio Pozzol Groppo),44.8661028,9.07139364
CCI002,CCI002,GODIASCO Costiola (Bivio Pozzol Groppo),44.86633876,9.07131325
CCI003,CCI003,CECIMA Casa Ponte (Bivio Cecima),44.85631954,9.08587916
CCI004,CCI004,CECIMA Casa Ponte (Bivio Cecima),44.85638311,9.08617019
CCR001,CCR001,CURA CARPIGNANO Prado - Del Lavoro,45.20854316,9.21883806
CCR002,CCR002,CURA CARPIGNANO Prado - Della Paiola/Degli Artigiani,45.20500548,9.21963064
CCR003,CCR003,CURA CARPIGNANO Prado - Della Paiola/Degli Artigiani,45.20475245,9.21922799
CCR004,CCR004,CURA CARPIGNANO Prado - Della Paiola/Carlesca,45.20601288,9.22186231
CCR005,CCR005,"CURA CARPIGNANO Poma, 5",45.21287198,9.25753629
CCR006,CCR006,CURA CARPIGNANO Dosso/De Gasperi,45.21383193,9.25510927
CCR007,CCR007,CURA CARPIGNANO Dosso/Della Spiga,45.21385515,9.25240969
CCR008,CCR008,CURA CARPIGNANO Pertini/Repubblica,45.2126566,9.25018361
CCR009,CCR009,CURA CARPIGNANO Veneto/Vimanone,45.21162834,9.25383853
CCR011,CCR011,CURA CARPIGNANO Calignano - Isola/Guado,45.21281967,9.28202299
CCR012,CCR012,CURA CARPIGNANO Caduti in Guerra/Foscolo,45.21108647,9.25863252
CCR013,CCR013,CURA CARPIGNANO Calignano - Isola/Guado,45.2129052,9.28196343
CCR019,CCR019,CURA CARPIGNANO Dosso/De Gasperi,45.21382624,9.25488349
CDL001,CDL001,CODEVILLA SP33 Voghera/SP1 Strada Nuova,44.98087952,9.06088915
CDL002,CDL002,CODEVILLA SP33 Voghera/SP1 Strada Nuova,44.9807333,9.06192722
CDL003,CDL003,CODEVILLA Umberto I (Comune),44.96305731,9.05865501
CDL004,CDL004,CODEVILLA Umberto I (Comune),44.96314032,9.05871958
CDL005,CDL005,CODEVILLA SP10 Mazza (Zona Commerciale),44.99724569,9.07214921
CDL006,CDL006,CODEVILLA SP10 Mazza (Zona Commerciale),44.99717991,9.07186751
CDL007,CDL007,CODEVILLA Roma/Codazza,44.96537319,9.05996218
CDL008,CDL008,CODEVILLA Roma/Codazza,44.96531317,9.05981678
CDL009,CDL009,"CODEVILLA Retorbido, 11",44.96423737,9.05315257
CDL010,CDL010,"CODEVILLA Retorbido, 11",44.96488746,9.05202856
CDN001,CDN001,COSTA DE' NOBILI Clerici/Pezzoni,45.13082398,9.37833387
CDN002,CDN002,COSTA DE' NOBILI Clerici/Pezzoni,45.13076245,9.37836687
CEA002,CEA002,CERANOVA Buonarroti/Montale,45.26014686,9.23817114
CGA001,CGA001,CALVIGNASCO Bettola - Vittorio Veneto/Moro,45.33158699,9.01973978
CGA002,CGA002,CALVIGNASCO Bettola - Vittorio Veneto/Moro,45.33242673,9.0202236
CGE001,CGE001,CASEI GEROLA Mazzini/Caduti per la Libertà,45.00488373,8.93369663
CGE002,CGE002,CASEI GEROLA Mazzini/Caduti per la Libertà,45.00498242,8.9335767
CGE003,CGE003,CASEI GEROLA Regione Magenta (ILV),45.02982245,8.91166222
CGE004,CGE004,CASEI GEROLA Regione Magenta (ILV),45.02980177,8.91158276
CGE005,CGE005,CASEI GEROLA Meardi (Comune),45.00617838,8.92689048
CGE006,CGE006,CASEI GEROLA Meardi (Comune),45.00609999,8.92699675
CGE007,CGE007,CASEI GEROLA Per Voghera (Centro Commerciale),44.99978989,8.96080179
CGE008,CGE008,CASEI GEROLA Per Voghera (Centro Commerciale),45.00023568,8.95992976
CGE009,CGE009,CASEI GEROLA Gerola Nuova - Po/S.Giacomo,45.03779784,8.90730558
CGE010,CGE010,CASEI GEROLA Gerola Nuova - Po/S.Giacomo,45.03773338,8.90711421
CGI004,CGI004,CASTEL S.GIOVANNI Gramsci,45.05804328,9.43930276
CGI005,CGI005,CASTEL S.GIOVANNI Gramsci,45.05827854,9.43905446
CGI006,CGI006,CASTEL S.GIOVANNI SP10 Emilia Pavese/Einaudi,45.05978391,9.42343123
CGI007,CGI007,CASTEL S.GIOVANNI SP10 Emilia Pavese/Einaudi,45.0598558,9.42339264
CGI008,CGI008,CASTEL S.GIOVANNI SP10 Emilia Pavese (Zona Industriale),45.06105142,9.41304446
CGI009,CGI009,CASTEL S.GIOVANNI SP10 Emilia Pavese (Zona Industriale),45.0611753,9.41255702
CGI010,CGI010,CASTEL S.GIOVANNI Bandiera/I Maggio,45.06054133,9.43518052
CGI011,CGI011,CASTEL S.GIOVANNI Bandiera/I Maggio,45.06063643,9.43463778
CGI012,CGI012,CASTEL S.GIOVANNI Montanara (Scuole),45.05422566,9.43581271
CGO007,CGO007,CERGNAGO SP211 Madonnina/Marconi,45.19605276,8.76938976
CGO008,CGO008,CERGNAGO SP211 Madonnina/Marconi,45.19605535,8.76943748
CHP007,CHP007,CHIGNOLO PO Alberone - SP204/Cucchiani,45.13381614,9.51661878
CHP008,CHP008,CHIGNOLO PO Alberone - SP204/Cucchiani,45.13359724,9.51656158
CHP009,CHP009,MONTICELLI PAVESE Bosco - SP204,45.12648397,9.52160163
CHP010,CHP010,MONTICELLI PAVESE Bosco - SP204,45.12635664,9.52145606
CHP011,CHP011,CHIGNOLO PO Garibaldi (Chiesa),45.15254416,9.49030586
CHP012,CHP012,CHIGNOLO PO Garibaldi (Chiesa),45.15238197,9.49024442
CHP013,CHP013,"CHIGNOLO PO XXV Aprile, 323",45.14815234,9.48158787
CHP014,CHP014,"CHIGNOLO PO XXV Aprile, 323",45.14816568,9.48135565
CHP015,CHP015,"CHIGNOLO PO XXV Aprile, 75",45.14922699,9.48520427
CHP016,CHP016,"CHIGNOLO PO XXV Aprile, 75",45.14932134,9.48522118
CHP018,CHP018,CHIGNOLO PO Ponte al Po/Bonetti,45.14626662,9.47975077
CHP019,CHP019,CHIGNOLO PO Ponte al Po/Bonetti,45.14629883,9.47989361
CIG002,CIG002,CASTEGGIO Dante/Manzoni,45.0139171,9.12282762
CIG003,CIG003,CASTEGGIO Dante/Manzoni,45.01401662,9.12298978
CIG004,CIG004,CASTEGGIO SP10 Emilia/Vittorio Veneto,45.01624336,9.12919641
CIG005,CIG005,CASTEGGIO SP10 Emilia/Vittorio Veneto,45.01619964,9.12935743
CIG006,CIG006,CASTEGGIO FS - Giulietti,45.01674665,9.1249997
CIG007,CIG007,CASTEGGIO FS - Giulietti,45.01686778,9.12502437
CIG009,CIG009,CASTEGGIO Scarbina - Manzoni/Tre Noci,45.0019216,9.11440896
CIG010,CIG010,CASTEGGIO Scarbina - Manzoni/Tre Noci,45.00219342,9.11472424
CIG013,CIG013,CASTEGGIO Manzoni/Della Battaglia,45.00988416,9.11850728
CIG014,CIG014,CASTEGGIO Manzoni/Della Battaglia,45.00966054,9.11882159
CIG015,CIG015,CASTEGGIO Torino/Verdi,45.01364867,9.11892388
CIG016,CIG016,CASTEGGIO Torino/Verdi,45.01380946,9.11863893
CIG017,CIG017,"CASTEGGIO Milano, 97",45.02551622,9.12865651
CIG018,CIG018,"CASTEGGIO Milano, 97",45.02520901,9.12882309
CIG020,CIG020,CASTEGGIO Manzoni/Pisani/Narbusto Inferiore,45.01157072,9.12039471
CIG021,CIG021,CASTEGGIO Manzoni/Pisani/Narbusto Inferiore,45.01151208,9.12051882
CIG022,CIG022,CASTEGGIO Del Rile (Scuole),45.01329252,9.12827477
CIL001,CIL001,CILAVEGNA Garibaldi/Cavour,45.30965852,8.74284598
CIL002,CIL002,CILAVEGNA Roma/II Giugno,45.30716975,8.74488443
CIL003,CIL003,CILAVEGNA Gravellona/Vignarello,45.313712,8.74367516
CIL005,CIL005,CILAVEGNA Roma/II Giugno,45.30716897,8.74492255
CLA001,CLA001,CIGOGNOLA Rivara - SP10 Emilia,45.04829754,9.22987528
CLA002,CLA002,CIGOGNOLA Rivara - SP10 Emilia,45.04822455,9.22991971
CLA003,CLA003,CIGOGNOLA Ca' del Piano - SP46 (Vasca),45.044001,9.24265469
CLA004,CLA004,"CIGOGNOLA Marconi, 36",45.03227599,9.24503079
CLA005,CLA005,"CIGOGNOLA Vallescuropasso - SP198, 21",45.04722551,9.25609137
CLA006,CLA006,"CIGOGNOLA Vallescuropasso - SP198, 21",45.04724083,9.25618843
CLA007,CLA007,CIGOGNOLA Ca' del Piano - Vicomune,45.04271167,9.22967399
CLA008,CLA008,CIGOGNOLA Ca' del Piano - Vicomune,45.04267892,9.22974267
CLA009,CLA009,"CIGOGNOLA Marconi, 36",45.03223178,9.24493807
CLA020,CLA020,CIGOGNOLA Valle Cima - SP198,45.04101862,9.25926734
CLA021,CLA021,CIGOGNOLA Valle Cima - SP198,45.04074146,9.25939436
CLO001,CLO001,CORTEOLONA GENZONE Olona/Giovanni XXIII,45.15889404,9.36207191
CLO002,CLO002,CORTEOLONA GENZONE Olona/Giovanni XXIII,45.15882929,9.36197462
CLO003,CLO003,CORTEOLONA GENZONE Maffi/Gianani,45.15707101,9.37055246
CLO005,CLO005,"CORTEOLONA GENZONE Cavallotti, 11 (Posta)",45.15708039,9.36783878
CLO006,CLO006,"CORTEOLONA GENZONE Cavallotti, 11 (Posta)",45.1570097,9.36855858
CLO007,CLO007,CORTEOLONA GENZONE Caduti per la Patria/Stazione (FS),45.15856469,9.37574967
CLO008,CLO008,CORTEOLONA GENZONE Caduti per la Patria/Stazione (FS),45.1587463,9.37569171
CLO009,CLO009,CORTEOLONA GENZONE Longobardi/Lombardia,45.15261793,9.3730974
CLO010,CLO010,CORTEOLONA GENZONE Longobardi/Lombardia,45.15266206,9.37325699
CLO013,CLO013,"CORTEOLONA GENZONE SP234 Kennedy, 10",45.15856771,9.37083798
CLO014,CLO014,"CORTEOLONA GENZONE SP234 Kennedy, 10",45.15868706,9.37030212
CLO015,CLO015,CORTEOLONA GENZONE Cavallotti/Giovanni XXIII,45.15795831,9.36478891
CLO016,CLO016,CORTEOLONA GENZONE Cavallotti/Giovanni XXIII,45.15838029,9.36374621
CML001,CML001,CANDIA LOMELLINA Roma/Marconi,45.17621177,8.59506044
CML002,CML002,CANDIA LOMELLINA Roma/Marconi,45.17626328,8.59509969
CMO002,CMO002,CASALE MONFERRATO Autostazione - Dante,45.13104983,8.45350323
CMO012,CMO012,CASALE MONFERRATO Terranova - Maestra/Stura (Chiesa),45.16398294,8.52314469
CMO013,CMO013,CASALE MONFERRATO Terranova - Maestra/Stura (Chiesa),45.16386114,8.52308307
CMO014,CMO014,CASALE MONFERRATO FS - Vittorio Veneto,45.13374745,8.45934855
CMO018,CMO018,CASALE MONFERRATO Adam/Oliaro,45.14367771,8.44670894
CMO019,CMO019,CASALE MONFERRATO Adam/Frailich,45.14367893,8.44658093
CMO020,CMO020,CASALE MONFERRATO S.Martino/Venezia,45.14059794,8.4525339
CMO021,CMO021,CASALE MONFERRATO S.Martino/Venezia,45.14067136,8.45256771
CMR001,CMR001,CAVA MANARA Tre Re -  Turati/Villa Glori,45.13214219,9.11945272
CMR002,CMR002,CAVA MANARA Tre Re - Togliatti/Giovanni XXIII,45.12630711,9.11922933
CMR003,CMR003,CAVA MANARA Mezzana Corti - Barsanti/Battelli,45.12279328,9.1197094
CMR004,CMR004,"CAVA MANARA Mezzana Corti - Barsanti, 33",45.12023465,9.12034995
CMR005,CMR005,"CAVA MANARA Mezzana Corti - Fermi, 16",45.11685698,9.1228643
CMR006,CMR006,"CAVA MANARA Mezzana Corti - Fermi, 36",45.11570397,9.12430632
CMR007,CMR007,CAVA MANARA Mezzana Corti - Galvani,45.11380706,9.12722759
CMR008,CMR008,"CAVA MANARA Mezzana Corti - Fermi, 36",45.11583619,9.12429996
CMR009,CMR009,"CAVA MANARA Mezzana Corti - Fermi, 16",45.11699201,9.12287401
CMR010,CMR010,"CAVA MANARA Mezzana Corti - Barsanti, 33",45.12038418,9.12040375
CMR011,CMR011,CAVA MANARA Mezzana Corti - Barsanti/Battelli,45.12289036,9.11988597
CMR013,CMR013,CAVA MANARA Tre Re -  Turati/Villa Glori,45.1321543,9.11961769
CMR014,CMR014,CAVA MANARA XXVI Aprile/Olivelli,45.14264132,9.11707868
CMR015,CMR015,CAVA MANARA Gramsci/Vittorio Emanuele II,45.14129667,9.10956187
CMR016,CMR016,CAVA MANARA Garibaldi/Costa,45.14121611,9.10132888
CMR017,CMR017,CAVA MANARA Dei Liguri/Matteotti,45.13834309,9.10404223
CMR018,CMR018,CAVA MANARA Vittorio Emanuele II,45.14122764,9.11026285
CMR020,CMR020,CAVA MANARA Tre Re - Togliatti/Giovanni XXIII,45.12620688,9.11939018
CMR021,CMR021,CAVA MANARA XXVI Aprile/Olivelli,45.14257369,9.11726292
CMR023,CMR023,CAVA MANARA SP193 Alessandria/Moro (Zona Ind.),45.1426937,9.09197974
CMR024,CMR024,"S.MARTINO SICCOMARIO SP35 Dei Giovi - Turati, 61",45.13689009,9.11972702
CMR025,CMR025,CAVA MANARA Garibaldi/Costa,45.14125813,9.10064467
CMR026,CMR026,CAVA MANARA Gramsci/Vittorio Emanuele II,45.14124025,9.10977606
CMR027,CMR027,CAVA MANARA SP193 Alessandria/Moro (Zona Ind.),45.14264438,9.09191283
CNA001,CNA001,CASTANA Casa Barbieri - SP45,45.01508347,9.27682529
CNA002,CNA002,CASTANA Casa Barbieri - SP45,45.01510876,9.27689478
CNA003,CNA003,CASTANA Casa Rovati - SP45,45.03772644,9.27008728
CNA004,CNA004,CASTANA Casa Rovati - SP45,45.0379768,9.27030851
CNA005,CNA005,CASTANA Cassinassa - SP45,45.02195195,9.27908035
CNA006,CNA006,CASTANA Cassinassa - SP45,45.02196851,9.27910738
CNA007,CNA007,CASTANA Roma (Posta),45.02602715,9.27453203
CNA008,CNA008,CASTANA Palazzina - Calvi,45.0311354,9.2688472
CNA009,CNA009,CASTANA Palazzina - Calvi,45.03114063,9.2689137
CNA010,CNA010,MONTESCANO Villafiorita (Centro Medico),45.03257677,9.28459954
CNA012,CNA012,CASTANA Roma (Posta),45.02623066,9.27308183
CNE001,CNE001,CORNALE Bastida Dossi - Torremenapace/Angeleri,45.04076727,8.92079258
CNE002,CNE002,CORNALE Bastida Dossi - Torremenapace/Angeleri,45.04089423,8.92088718
CNE005,CNE005,CORNALE Torremenapace/Libertà,45.04296323,8.91546573
CNE006,CNE006,CORNALE Torremenapace/Libertà,45.04290456,8.91523752
CNE007,CNE007,CORNALE Cornale - Garibaldi/5 Martiri,45.04200426,8.90959901
CNE008,CNE008,CORNALE Cornale - Garibaldi/5 Martiri,45.04211589,8.90958898
CNE009,CNE009,CORNALE Meardi/Garibaldi,45.0408968,8.90769668
CNE010,CNE010,CORNALE Meardi/Garibaldi,45.04073756,8.90754995
CNV001,CNV001,CANEVINO Caseo - SP201,44.94356606,9.27454187
CNV002,CNV002,CANEVINO Caseo - SP201,44.9435756,9.27463669
COA001,COA001,CORANA Vittorio Emanuele (Municipio),45.06148241,8.96919352
COA002,COA002,CORANA Vittorio Emanuele (Municipio),45.06145054,8.96909143
COA003,COA003,CORANA Ghiaie - Vittorio Emanuele/Cavour,45.06545276,8.95330213
COA004,COA004,CORANA Ghiaie - Vittorio Emanuele/Cavour,45.06553325,8.95344148
COA005,COA005,CORANA Ghiaie - Vittorio Emanuele,45.06789039,8.95031819
COA006,COA006,CORANA Ghiaie - Vittorio Emanuele,45.06785897,8.95026406
COA007,COA007,CORANA Tripoli/Barchi,45.06369878,8.96821201
COA008,COA008,CORANA Tripoli/Barchi,45.06372324,8.96833999
CPA001,CPA001,CERTOSA DI PAVIA Torriano - Principale,45.2619913,9.1238279
CPA002,CPA002,CERTOSA DI PAVIA SP35 Dei Giovi/Certosa,45.25234767,9.13052008
CPA003,CPA003,CERTOSA DI PAVIA SP35 Dei Giovi/Certosa,45.25232498,9.1304529
CPA004,CPA004,CERTOSA DI PAVIA Certosa (Monumento),45.25542978,9.14094917
CPA005,CPA005,CERTOSA DI PAVIA Certosa (Monumento),45.25549681,9.14147501
CPA006,CPA006,CERTOSA DI PAVIA Cascine Calderari,45.23387663,9.1248392
CPE001,CPE001,CANNETO PAVESE IV Novembre/Croce,45.05140624,9.27951427
CPE002,CPE002,CANNETO PAVESE IV Novembre/Croce,45.05146421,9.27952501
CPE003,CPE003,CANNETO PAVESE Colombarone - SP45,45.04760642,9.27058787
CPE004,CPE004,CANNETO PAVESE Colombarone - SP45,45.04771859,9.27061727
CPE005,CPE005,CANNETO PAVESE Casa Bazzini - SP45,45.04373886,9.26995148
CPE006,CPE006,CANNETO PAVESE Casa Bazzini - SP45,45.04373878,9.26998425
CPE007,CPE007,CANNETO PAVESE Vigalone - SP201,45.04608351,9.2983602
CPE008,CPE008,CANNETO PAVESE Vigalone - SP201,45.04621959,9.29840303
CPE015,CPE015,CANNETO PAVESE Roncole - SP201,45.03672905,9.29954366
CPN003,CPN003,"COPIANO Dante, 5",45.19900621,9.32080246
CPN004,CPN004,COPIANO Ponti/Giovanni XXIII/Roma,45.19672597,9.32191589
CPN005,CPN005,COPIANO Ponti/Giovanni XXIII/Roma,45.19683092,9.32189363
CPN006,CPN006,COPIANO Vistarino/Case Popolari,45.19921369,9.31969694
CPN007,CPN007,COPIANO Ponti (Cimitero),45.19619438,9.32623406
CPN008,CPN008,COPIANO Ponti (Cimitero),45.19627277,9.32540617
CPN010,CPN010,COPIANO Case Nuove (Cimitero),45.19605656,9.32564209
CPR002,CPR002,CASORATE PRIMO Tosi/Avis (Ospedale),45.30893578,9.01459948
CPR003,CPR003,CASORATE PRIMO Contardi/Santagostino,45.31140626,9.0197921
CPR004,CPR004,CASORATE PRIMO Santagostino/Fermi,45.30842054,9.02265983
CPR005,CPR005,CASORATE PRIMO Vittorio Emanuele/Di Vittorio,45.31455167,9.0250302
CPR008,CPR008,CASORATE PRIMO Capo di Vico/Garibaldi,45.31389918,9.01652803
CPR009,CPR009,CASORATE PRIMO Battisti/Europa Unita,45.3127096,9.01526117
CPR010,CPR010,CASORATE PRIMO Battisti/De Gasperi,45.30985091,9.01271413
CPS001,CPS001,CAMPOSPINOSO Roma/Del Torchio,45.10525727,9.2434634
CPS002,CPS002,CAMPOSPINOSO Roma/Del Torchio,45.10524221,9.243581
CPS003,CPS003,CAMPOSPINOSO Casette/Grisini,45.09319776,9.25332488
CPS004,CPS004,CAMPOSPINOSO Casette/Grisini,45.09219631,9.25403604
CPS005,CPS005,CAMPOSPINOSO Casette/Da Vinci,45.09678522,9.25004064
CPS006,CPS006,CAMPOSPINOSO Casette/Moro,45.0978016,9.24929318
CRA005,CRA005,CERANO IV Novembre/Marchetti,45.41103908,8.78220528
CRA006,CRA006,CERANO Novara/Mascagni,45.41492745,8.77739976
CRA007,CRA007,CERANO IV Novembre/Marchetti,45.41083084,8.78218819
CRA008,CRA008,CERANO Novara/Mascagni,45.41490171,8.77724727
CRP001,CRP001,CARPIANO Draghetto - Rossa (Gnignano),45.33050524,9.24527652
CRP002,CRP002,CARPIANO Draghetto - Rossa (Gnignano),45.33048565,9.24518297
CSQ001,CSQ001,CORVINO S.QUIRICO Casa Castellini - SP46,45.02235793,9.15551328
CSQ002,CSQ002,CORVINO S.QUIRICO Casa Castellini - SP46,45.02240138,9.15542016
CSQ003,CSQ003,CORVINO S.QUIRICO Casa Ferrari (Chiesa),45.01343892,9.16054473
CSQ004,CSQ004,CORVINO S.QUIRICO Casa Ferrari (Chiesa),45.01372082,9.16032014
CSQ005,CSQ005,CORVINO S.QUIRICO Roma/Rampa,45.01014615,9.16243904
CSQ006,CSQ006,CORVINO S.QUIRICO Roma/Rampa,45.01012806,9.16236672
CSQ007,CSQ007,CORVINO S.QUIRICO Fumo - SP10/Sanzio,45.02412243,9.15143998
CSQ008,CSQ008,CORVINO S.QUIRICO Fumo - SP10/Sanzio,45.02417679,9.15140681
CSQ009,CSQ009,CORVINO S.QUIRICO Oratorio - SP46/Mazzolino,45.0066196,9.16150307
CSQ010,CSQ010,CORVINO S.QUIRICO Oratorio - SP46/Mazzolino,45.00654865,9.16143151
CSQ011,CSQ011,CORVINO S.QUIRICO Fumo (Santuario),45.02557641,9.15632772
CSQ012,CSQ012,CORVINO S.QUIRICO Fumo (Santuario),45.02540896,9.15631742
CTI001,CTI001,CARBONARA AL TICINO Risorgimento/Moretti,45.16408273,9.06119557
CTI004,CTI004,CARBONARA AL TICINO SP596 Dei Cairoli,45.16216288,9.06624121
CTI006,CTI006,CARBONARA AL TICINO SP596 Dei Cairoli,45.16157358,9.06957035
CTI007,CTI007,CARBONARA AL TICINO Risorgimento/Moretti,45.16410581,9.06118201
CTS001,CTS001,"CASATISMA SP35 Dei Giovi, 15 (Bettole)",45.04980742,9.13390442
CTS002,CTS002,"CASATISMA SP35 Dei Giovi, 15 (Bettole)",45.04986125,9.13405059
CTS003,CTS003,CASATISMA Libertà/Guniforto,45.04766026,9.128967
CTS004,CTS004,CASATISMA Libertà/Guniforto,45.04767603,9.12884005
CVE001,CVE001,CERVESINA Vittorio Emanuele II,45.06318978,9.01520346
CVE002,CVE002,CERVESINA Vittorio Emanuele II,45.06340852,9.01557461
CVE003,CVE003,CERVESINA S.Gaudenzio - Moretti/Arcipretura,45.04785749,9.00814878
CVE004,CVE004,CERVESINA Marconi/Casone,45.0563338,9.01646533
CVE005,CVE005,CERVESINA Marconi/Casone,45.05613304,9.01647273
CVE006,CVE006,CERVESINA Pancarana/Don Orione,45.06464421,9.02067863
CVE007,CVE007,CERVESINA Pancarana/Don Orione,45.06443486,9.02069825
CVE008,CVE008,CERVESINA Buschi (Cascina Bonesca),45.069385,9.02866287
CVE009,CVE009,CERVESINA Buschi (Cascina Bonesca),45.0691512,9.02883013
CVG002,CVG002,CALVIGNANO Roma (Municipio),44.98268088,9.1689875
CVN001,CVN001,CASANOVA LONATI Campanina,45.11139207,9.20977318
CVN002,CVN002,CASANOVA LONATI Campanina,45.11141351,9.20971552
CVN003,CVN003,CASANOVA LONATI Alberti (Municipio),45.09379906,9.21380795
CVN004,CVN004,VERRUA PO SP82 (Ponte Scuropasso),45.1072508,9.20412543
CVN005,CVN005,VERRUA PO SP82 (Ponte Scuropasso),45.10729549,9.20402014
CVN006,CVN006,CASANOVA LONATI Alberti (Municipio),45.09369762,9.21381697
CVO001,CVO001,CASSOLNOVO Roma/Marconi,45.35788685,8.81313806
CVO002,CVO002,CASSOLNOVO Roma/Marconi,45.35819027,8.81299518
CVO003,CVO003,CASSOLNOVO Molino del Conte - Trento/Udine,45.35018508,8.82015881
CVO004,CVO004,CASSOLNOVO Molino del Conte - Trento/Trieste,45.34933777,8.82114824
CVO005,CVO005,"CASSOLNOVO Molino del Conte - Gorizia, 41",45.34655893,8.8237743
CVO006,CVO006,CASSOLNOVO Carlo Alberto/Cavour,45.36316682,8.80900978
CVO007,CVO007,CASSOLNOVO Carlo Alberto/Delle Noci,45.36855621,8.80655043
CVO008,CVO008,CASSOLNOVO Carlo Alberto/Tornura,45.36863332,8.80637461
CVO009,CVO009,"CASSOLNOVO Molino del Conte - Gorizia, 41",45.34679306,8.82330511
CVO012,CVO012,CASSOLNOVO Carlo Alberto/Cavour,45.36297431,8.80902162
DOR001,DOR001,DORNO Bonacossa/Marconi,45.15493134,8.9507145
DOR002,DOR002,DORNO Bonacossa/Marconi,45.15487949,8.95066682
DOR003,DOR003,DORNO Conte Bonacossa/Canevari,45.15802208,8.94876112
DOR004,DOR004,DORNO Scaldasole/Fermi/De Gasperi,45.14896471,8.95059043
DOR005,DOR005,DORNO Scaldasole/Fermi/De Gasperi,45.14916698,8.9504029
DOR006,DOR006,DORNO Conte Bonacossa/Canevari,45.15839336,8.94817505
FCU001,FCU001,FABBRICA CURONE Roma - SP100,44.7824456,9.14939225
FCU002,FCU002,FABBRICA CURONE Roma - SP100,44.7831205,9.14871937
FCU003,FCU003,FABBRICA CURONE Pareto - SP111,44.79322282,9.16579642
FCU004,FCU004,FABBRICA CURONE Pareto - SP111,44.7932717,9.16577826
FGH001,FGH001,FILIGHERA Montesano - SP37,45.18355741,9.29397481
FGH002,FGH002,FILIGHERA Montesano - SP37,45.18374486,9.29384764
FGH003,FGH003,FILIGHERA Cairoli/Monaca,45.17669306,9.3145853
FGH004,FGH004,FILIGHERA Cairoli/Monaca,45.17635406,9.31551861
FGH005,FGH005,FILIGHERA Gui/Negri,45.17521583,9.3169296
FGH006,FGH006,FILIGHERA Gui/Negri,45.17523708,9.31681627
FLO001,FLO001,FRASCAROLO Grande (Chiesa),45.04609511,8.68269457
FLO002,FLO002,FRASCAROLO Roma/Zara,45.04837151,8.67909853
FLO003,FLO003,FRASCAROLO Roma/Zara,45.04837922,8.67913512
FLO004,FLO004,FRASCAROLO Grande (Chiesa),45.04614994,8.68269599
FTU001,FTU001,FORTUNAGO Costa Cavalieri (Bivio Fortunago),44.91465257,9.19118207
FTU002,FTU002,FORTUNAGO Costa Cavalieri (Bivio Fortunago),44.91464265,9.19118256
FTU003,FTU003,FORTUNAGO Costa Cavalieri - Della Coste,44.91247703,9.19909352
FTU004,FTU004,FORTUNAGO Dell'Oratorio (Chiesa),44.92094894,9.18386598
FTU005,FTU005,FORTUNAGO S.Eusebio - Colombara,44.90321239,9.15051784
FTU006,FTU006,FORTUNAGO S.Eusebio - Colombara,44.90323681,9.15055424
FTU008,FTU008,FORTUNAGO Costa Cavalieri - Della Coste,44.91233886,9.19910399
FTU009,FTU009,FORTUNAGO Molino Della Signora,44.90607664,9.18452722
FTU013,FTU013,FORTUNAGO Costa Galeazzi - SP203,44.9124441,9.20515664
FTU014,FTU014,FORTUNAGO Costa Galeazzi - SP203,44.91256207,9.20511684
GCA001,GCA001,GROPELLO CAIROLI Della Libertà/Zanotti Meschini,45.17705181,8.99187446
GCA003,GCA003,GROPELLO CAIROLI Della Libertà/Zanotti Meschini,45.17699083,8.99213048
GCA004,GCA004,GROPELLO CAIROLI Marconi/Chiesuolo,45.17921397,8.98426451
GCA005,GCA005,GROPELLO CAIROLI Motti/Bergamo,45.17200066,9.00238231
GCA006,GCA006,GROPELLO CAIROLI S.Spirito - SP596 Dei Cairoli,45.16479085,9.01852006
GCA007,GCA007,GROPELLO CAIROLI Marconi/Chiesuolo,45.17933376,8.98411569
GCA008,GCA008,GROPELLO CAIROLI Motti/Olivelli,45.1720129,9.00240078
GCA009,GCA009,GROPELLO CAIROLI S.Spirito - SP596 Dei Cairoli,45.1648911,9.01861387
GCO002,GCO002,GARLASCO Della Vittoria,45.19691184,8.91769489
GCO003,GCO003,GARLASCO Della Vittoria,45.19672187,8.91796489
GCO004,GCO004,GARLASCO I Maggio/Borgonuovo,45.1944296,8.9247306
GCO005,GCO005,GARLASCO Cavour/S.Zeno,45.19417596,8.92882857
GCO006,GCO006,GARLASCO Bozzole - Ca' Bassa/Baraggia (Santuario),45.21271877,8.93525541
GCO007,GCO007,GARLASCO S.Biagio - Ticino/Borgo Aurelio,45.20812027,8.96162562
GCO008,GCO008,GARLASCO S.Biagio - Ticino/Borgo Aurelio,45.20818628,8.96196022
GCO009,GCO009,GARLASCO Della Bozzola/Zaninetta/Molinai,45.20109231,8.92542526
GCO010,GCO010,GARLASCO Pavia/Pascoli,45.19262896,8.93473684
GCO011,GCO011,GARLASCO S.Biagio - Ticino/Castellani,45.20592988,8.95690998
GCO012,GCO012,GARLASCO S.Biagio - Ticino/Cantone,45.2101211,8.9709314
GCO013,GCO013,GARLASCO S.Biagio - Ticino/Cantone,45.2100794,8.97094408
GCO014,GCO014,GARLASCO Cavour/Oriani,45.19429139,8.92813403
GCO015,GCO015,GARLASCO Pavia/Pascoli,45.19264009,8.9342628
GCO016,GCO016,GARLASCO Bozzole - Ca' Bassa/Baraggia (Santuario),45.2126258,8.93529042
GCO017,GCO017,GARLASCO Della Bozzola/Zaninetta/Molinai,45.20084841,8.92531293
GCO018,GCO018,GARLASCO Della Vittoria (Parcheggio),45.19668486,8.91784811
GCO019,GCO019,GARLASCO S.Biagio - Ticino/Castellani,45.20585045,8.95691873
GCO027,GCO027,GARLASCO I Maggio/Borgonuovo,45.19433502,8.92451593
GCO102,GCO102,GARLASCO Della Vittoria,45.19688572,8.91768064
GDI001,GDI001,GODIASCO Vittorio Emanuele II/Alesina (Municipio),44.89684852,9.05513318
GDI002,GDI002,GODIASCO Vittorio Emanuele II/Alesina (Municipio),44.89679967,9.05515139
GDI003,GDI003,GODIASCO Salice Terme - Delle Terme/Olmi,44.91455415,9.02749903
GDI005,GDI005,GODIASCO Salice Terme - Mangiagalli/Dei Ciliegi,44.91010366,9.02801363
GDI006,GDI006,GODIASCO S.Desiderio - SP461,44.88027585,9.06233419
GDI007,GDI007,GODIASCO S.Desiderio - SP461,44.88040669,9.06232587
GDI009,GDI009,GODIASCO Garibaldi/Pedemonti,44.89973895,9.05295926
GDI010,GDI010,GODIASCO Garibaldi (Cimitero),44.90101816,9.05247915
GDI013,GDI013,GODIASCO Salice Terme - Diviani/Marconi,44.91542787,9.02680644
GDI014,GDI014,GODIASCO Bertignana - SP461,44.88969753,9.06034161
GDI015,GDI015,GODIASCO Bertignana - SP461,44.88908463,9.06064217
GDI016,GDI016,GODIASCO Mazzini/Vittorio Emanuele,44.89513433,9.05846242
GDI017,GDI017,GODIASCO Mazzini/Vittorio Emanuele,44.89522484,9.05884538
GDI018,GDI018,GODIASCO Delle Terme/Fermi,44.91697667,9.0235199
GDI019,GDI019,GODIASCO Mangiagalli/Fava (Chiesa),44.91446972,9.02407862
GDI020,GDI020,GODIASCO Mangiagalli/Verdi,44.91264637,9.02572762
GDI021,GDI021,GODIASCO Mangiagalli/Lorenzini,44.91135333,9.02738169
GDI022,GDI022,GODIASCO Mangiagalli/Degli Aceri (Casa di Cura),44.90806524,9.03078152
GDI023,GDI023,GODIASCO Salice Terme - Delle Terme/Calbicella,44.91322402,9.02944381
GFE001,GFE001,GOLFERENZO Casa Scagni - SP40,44.95781634,9.29515044
GFE004,GFE004,GOLFERENZO Roma (Chiesa),44.96171522,9.3057383
GFE005,GFE005,MONTECALVO VERSIGGIA Versa - SP40,44.96512519,9.29119448
GGO001,GGO001,GIUSSAGO Casatico - Roma/Barona,45.27786314,9.14086213
GGO002,GGO002,GIUSSAGO Casatico - Roma/Barona,45.2789745,9.14154134
GGO004,GGO004,GIUSSAGO Baselica Bologna - Rosselli (Chiesa),45.30446808,9.12513722
GGO005,GGO005,GIUSSAGO Carpignago - Dei Platani,45.26778594,9.14439625
GGO006,GGO006,GIUSSAGO Carpignago - Dei Platani,45.26811584,9.14426494
GGO007,GGO007,"GIUSSAGO Turago Bordone - Grande, 2",45.29215521,9.16843842
GGO008,GGO008,"GIUSSAGO Villanova de' Beretti - SP27, 75",45.26193732,9.14040705
GGO009,GGO009,"GIUSSAGO Villanova de' Beretti - SP27, 75",45.26220187,9.14027039
GGO010,GGO010,"GIUSSAGO Turago Bordone - Grande, 2",45.29212303,9.16833411
GGO011,GGO011,GIUSSAGO Marconi/Longo,45.28549273,9.13765119
GGO013,GGO013,GIUSSAGO Roma/Battisti (Comune),45.28501462,9.14194006
GGO014,GGO014,GIUSSAGO Roma/Battisti (Comune),45.28492235,9.14207188
GLA001,GLA001,GALLIAVOLA Della Vittoria (Municipio),45.09692818,8.81925951
GLO001,GLO001,GRAVELLONA LOMELLINA Insurrezione/Delucca,45.32916501,8.76553633
GLO002,GLO002,GRAVELLONA LOMELLINA Insurrezione/Delucca,45.32857229,8.76571187
GMB002,GMB002,GAMBOLO' Garbana - Biraga (Chiesa),45.25578069,8.79994681
GMB003,GMB003,GAMBOLO' Garbana - Biraga (Chiesa),45.25573042,8.79997369
GMB004,GMB004,GAMBOLO' Remondò FS - Mortara/Stazione,45.23527506,8.8022975
GMB005,GMB005,GAMBOLO' Remondò FS - Mortara/Stazione,45.23557242,8.80242789
GMB006,GMB006,GAMBOLO' Remondò - Santi Martiri,45.24230744,8.804313
GMB007,GMB007,"GAMBOLO' Umberto I, 220",45.26500389,8.85476774
GMB008,GMB008,"GAMBOLO' Umberto I, 220",45.26536707,8.85482131
GMB009,GMB009,GAMBOLO' Carrobbio/Mazzini,45.25681444,8.85649195
GMB010,GMB010,GAMBOLO' Carrobbio/Mazzini,45.25676331,8.85661252
GMB011,GMB011,GAMBOLO' Roma/Borgo S.Siro,45.25419646,8.86221712
GMB012,GMB012,GAMBOLO' Roma/Borgo S.Siro,45.25421609,8.86200384
GMB013,GMB013,"GAMBOLO' Roma, 100",45.25097181,8.86279935
GMB014,GMB014,"GAMBOLO' Belcreda - XXV Aprile, 9",45.26554484,8.90103772
GMB015,GMB015,"GAMBOLO' Belcreda - XXV Aprile, 44",45.25826544,8.9048911
GMB016,GMB016,GAMBOLO' Industria (ItalFerro),45.27862242,8.85420683
GMB017,GMB017,"GAMBOLO' Umberto I, 312",45.26803998,8.85461938
GMB019,GMB019,GAMBOLO' Umberto I/Vignate (Carabinieri),45.25962216,8.8558595
GMB020,GMB020,"GAMBOLO' Belcreda - XXV Aprile, 9",45.26529791,8.90147191
GMB021,GMB021,"GAMBOLO' Belcreda - XXV Aprile, 44",45.25786952,8.9049626
GMB022,GMB022,GAMBOLO' Remondò - Santi Martiri,45.2423908,8.80440841
GMB028,GMB028,"GAMBOLO' Umberto I, 312",45.26836554,8.85470703
GMB029,GMB029,GAMBOLO' Umberto I/Marconi (Carabinieri),45.2596624,8.85592101
GMB030,GMB030,GAMBOLO' Industria (ItalFerro),45.27871772,8.85426155
GNA001,GNA001,GAMBARANA Corti (Posta),45.02802832,8.7634287
GNA002,GNA002,GAMBARANA Corti (Posta),45.02807206,8.76329519
GZG001,GZG001,GERENZAGO Moro/Inverno (Chiesa),45.20579007,9.36201182
GZG002,GZG002,GERENZAGO Moro/Inverno (Chiesa),45.20584861,9.3617464
GZG003,GZG003,GERENZAGO Villanterio/S.Mauro,45.20884564,9.36184121
GZG004,GZG004,GERENZAGO Villanterio/S.Mauro,45.2086467,9.36205221
GZN001,GZN001,CORTEOLONA GENZONE Genzone - IV Novembre/V. Eman. (Chiesa),45.17949335,9.34806775
GZN002,GZN002,CORTEOLONA GENZONE Genzone - IV Novembre/V. Eman. (Chiesa),45.17948162,9.348039
IMO001,IMO001,INVERNO MONTELEONE Miradolo/Melograno,45.1915095,9.41358728
IMO002,IMO002,INVERNO MONTELEONE Miradolo/Melograno,45.19167802,9.4132622
IMO003,IMO003,INVERNO MONTELEONE Pavia/Roma (Chiesa),45.1982031,9.38409503
IMO004,IMO004,INVERNO MONTELEONE Pavia/Roma (Chiesa),45.19817396,9.38397727
IMO005,IMO005,INVERNO MONTELEONE Umberto I/Forni,45.19447408,9.4062615
IMO007,IMO007,INVERNO MONTELEONE Umberto I/Forni,45.19502942,9.40600384
LCH001,LCH001,LACCHIARELLA Lombardia/Falcone,45.32580048,9.13356133
LCH002,LCH002,"LACCHIARELLA Casirate Olona - Pavese, 3",45.30628006,9.16449147
LCH003,LCH003,"LACCHIARELLA Casirate Olona - Pavese, 3",45.30609796,9.16447931
LCH004,LCH004,LACCHIARELLA Mettone - Mazzini,45.31344383,9.15347108
LCH005,LCH005,LACCHIARELLA Mettone - Mazzini,45.31330924,9.15357274
LCH006,LCH006,LACCHIARELLA Centro Girasole,45.3322178,9.12698102
LCH007,LCH007,LACCHIARELLA Giovane Italia,45.31794214,9.13891995
LCH009,LCH009,LACCHIARELLA Vittorio Veneto/Giovine Italia,45.31813671,9.1390029
LCH010,LCH010,LACCHIARELLA Toscana/Friuli,45.32365226,9.13151038
LCH016,LCH016,LACCHIARELLA Carlo Alberto (Municipio),45.32215747,9.13704825
LCH021,LCH021,LACCHIARELLA Milite Ignoto,45.32039568,9.14046207
LCH022,LCH022,LACCHIARELLA Gramsci/Bargiggia,45.32257225,9.13997692
LCH023,LCH023,"LACCHIARELLA Togliatti, 13",45.32412581,9.14322686
LCH024,LCH024,LACCHIARELLA Mameli/Leopardi,45.32626392,9.13670702
LCT001,LCT001,LOCATE TRIULZI Milani/Cadorna,45.35988101,9.22645537
LCT003,LCT003,LOCATE TRIULZI Moro/Paganini,45.35671213,9.23068009
LCT004,LCT004,LOCATE TRIULZI Nenni/Piave,45.35382239,9.22715256
LCT007,LCT007,LOCATE TRIULZI Moro/Milani,45.35943234,9.22957079
LCT009,LCT009,LOCATE TRIULZI Moro/Milani,45.35911766,9.22975049
LCT010,LCT010,LOCATE TRIULZI Moro/Paganini,45.35681513,9.2307195
LCT011,LCT011,LOCATE TRIULZI Nenni/Piave,45.35392186,9.22760447
LDI001,LDI001,LARDIRAGO Roma/IV Novembre,45.23527671,9.23246706
LDI002,LDI002,LARDIRAGO Roma/Corridoni,45.23520784,9.23214137
LDI003,LDI003,"LARDIRAGO Duca d'Aosta, 287",45.23838735,9.23357945
LDN003,LDN003,LANDRIANO Milano (Cimitero),45.30920909,9.26553294
LDN004,LDN004,LANDRIANO Milano (Cimitero),45.30898405,9.26584046
LDN005,LDN005,LANDRIANO Pairana - Marchesona/Lussu,45.32271398,9.28477168
LDN006,LDN006,LANDRIANO Pairana - Marchesona/Del Glicine,45.32264261,9.28474843
LDN007,LDN007,LANDRIANO Pairana - Purificazione Maria Vergine,45.31994844,9.28770201
LDN008,LDN008,LANDRIANO Pairana - Purificazione Maria Vergine,45.31999952,9.2881462
LDN009,LDN009,LANDRIANO S.Rocco - Milano/Donatori di Sangue,45.31488748,9.25854174
LDN010,LDN010,LANDRIANO S.Rocco - Milano/Donatori di Sangue,45.31423397,9.25930107
LDN011,LDN011,LANDRIANO Milano/S.Quirico,45.31200425,9.26126891
LDN012,LDN012,LANDRIANO Milano/Graffignana,45.31118439,9.26209133
LIN001,LIN001,"LINAROLO S.Leonardo - Nobili, 125 (Chiesa)",45.15718631,9.22951133
LIN002,LIN002,LINAROLO S.Leonardo - Nobili/Becca (Posta),45.156415,9.23151451
LIN003,LIN003,"LINAROLO Vaccarizza - Po, 40",45.148205,9.23722783
LIN004,LIN004,"LINAROLO Vaccarizza - Po, 24",45.1482961,9.23971156
LIN005,LIN005,LINAROLO Ospedaletto - SP13,45.15055247,9.25977992
LIN006,LIN006,LINAROLO S.Leonardo (Cimitero),45.15550451,9.26875449
LIN007,LIN007,LINAROLO Dante (Municipio),45.15811895,9.269912
LIN008,LIN008,LINAROLO Cavallotti/Gramsci,45.16120829,9.2704414
LIN009,LIN009,LINAROLO Cavallotti/Buonarroti,45.16535633,9.27155449
LIN010,LIN010,LINAROLO SP234/Cavallotti,45.16635722,9.27114424
LIN011,LIN011,LINAROLO SP234/Cavallotti,45.16590844,9.27317773
LIR001,LIR001,LIRIO Molino Sacrista (Bivio Lirio),45.00080197,9.26217783
LIR002,LIR002,LIRIO Molino Sacrista (Bivio Lirio),45.00082916,9.26226932
LIR003,LIR003,LIRIO Battisti,44.99415218,9.25551161
LIR004,LIR004,LIRIO Battisti,44.99412407,9.25557188
LOM001,LOM001,LOMELLO Repubblica (Comune - Castello),45.12091113,8.79437936
LOM005,LOM005,LOMELLO Repubblica (Comune - Castello),45.12086673,8.79476476
LUN001,LUN001,LUNGAVILLA Umberto I/Piacentini,45.0365068,9.079709
LUN002,LUN002,LUNGAVILLA Umberto I/Piacentini,45.03653178,9.07957252
LUN003,LUN003,LUNGAVILLA Umberto I/Sacro Cuore/Alberti,45.04339543,9.08148695
LUN004,LUN004,LUNGAVILLA Umberto I/XX Settembre,45.04120876,9.08143933
LUN005,LUN005,LUNGAVILLA Umberto I/Giovanni XXIII,45.04126304,9.08135931
LUN006,LUN006,VERRETTO S.Matteo (Chiesa),45.03998909,9.1074699
LUN007,LUN007,LUNGAVILLA Umberto I/Sacro Cuore/Alberti,45.0434487,9.08161099
LUN008,LUN008,LUNGAVILLA Masazza/Bonsignore (Scuole),45.04039542,9.07765895
LUN009,LUN009,"LUNGAVILLA Umberto I, 285",45.04592958,9.0815055
MAG002,MAG002,MAGHERNO Roma/Chiesa,45.22319246,9.32989688
MAG003,MAG003,MAGHERNO Roma/Gioietta,45.22160836,9.32407147
MAG004,MAG004,MAGHERNO Roma/Gioietta,45.22180311,9.32417755
MAG005,MAG005,MAGHERNO Roma/Chiesa,45.22332162,9.33007599
MAG006,MAG006,MAGHERNO Giovanni XXIII,45.22305513,9.32831633
MAG007,MAG007,MAGHERNO Giovanni XXIII,45.22290394,9.32755087
MBA003,MBA003,MONTEBELLO BATT. Genestrello - Mazza,44.99842502,9.08887313
MBA004,MBA004,MONTEBELLO BATT. Genestrello - Mazza,44.99860654,9.08873571
MBA005,MBA005,MONTEBELLO BATT. Barbieri/Mazza,45.00384763,9.10172458
MBA006,MBA006,MONTEBELLO BATT. Barbieri/Mazza,45.00432235,9.10251719
MBA007,MBA007,MONTEBELLO BATT. Vittorio Emanuele II/Cavour,44.99927805,9.10372407
MBA008,MBA008,MONTEBELLO BATT. Vittorio Emanuele II/Cavour,44.99935862,9.1034137
MBE001,MBE001,MONTU' BECCARIA Bergamasco - SP43,45.02601751,9.31388358
MBE002,MBE002,MONTU' BECCARIA Bergamasco - SP43,45.02611326,9.31386244
MBE003,MBE003,MONTU' BECCARIA Casa Barbieri - SP43,45.02023198,9.32737987
MBE004,MBE004,MONTU' BECCARIA Costa Monfedele (Chiesa),45.04291898,9.34673412
MBE005,MBE005,MONTU' BECCARIA Costa Monfedele (Chiesa),45.04286693,9.34675298
MBE006,MBE006,MONTU' BECCARIA Maccarone Frati - SP43,45.01790991,9.31322617
MBE007,MBE007,MONTU' BECCARIA Maccarone Frati - SP43,45.01787649,9.31321251
MBE008,MBE008,MONTU' BECCARIA Loglio di Sotto - SP201,45.01859743,9.29926811
MBE009,MBE009,MONTU' BECCARIA Loglio di Sotto - SP201,45.01847874,9.29919647
MBE011,MBE011,MONTU' BECCARIA Garibaldi/Marconi,45.03527488,9.31472402
MBE012,MBE012,MONTU' BECCARIA Poggiolo - SP43,45.01446354,9.3195017
MBE013,MBE013,MONTU' BECCARIA Casa Barbieri - SP43,45.02016028,9.32740242
MBE015,MBE015,MONTU' BECCARIA Poggiolo - SP43,45.01448752,9.31949918
MBE017,MBE017,MONTU' BECCARIA Tassarole - SP43,45.03734374,9.30757943
MBE018,MBE018,MONTU' BECCARIA Garibaldi/Marconi,45.03518093,9.31472225
MBE021,MBE021,MONTU' BECCARIA Loglio di Sopra,45.01304254,9.29908031
MBE022,MBE022,MONTU' BECCARIA Loglio di Sopra,45.01311112,9.29953973
MBE023,MBE023,"MONTU' BECCARIA Belvedere, 25",45.03546555,9.32832658
MBE024,MBE024,"MONTU' BECCARIA Belvedere, 25",45.03518493,9.32884983
MBE025,MBE025,MONTU' BECCARIA Colombaia - SP61,45.03897692,9.33736816
MBE026,MBE026,MONTU' BECCARIA Colombaia - SP61,45.03878056,9.33770162
MBE029,MBE029,MONTU' BECCARIA Marcadello - SP43,45.03620642,9.31177173
MBE030,MBE030,MONTU' BECCARIA Marcadello - SP43,45.03615125,9.31169333
MDE002,MDE002,MEDE FS - Della Costituzione,45.0951626,8.74252543
MDE003,MDE003,MEDE Tortorolo - SP194,45.07831905,8.7647774
MDE006,MDE006,MEDE Fermi/Mattei,45.09989665,8.72946007
MDE007,MDE007,MEDE I Maggio/Pellico,45.09954579,8.73049869
MDE009,MDE009,MEDE Tortorolo - SP194,45.07834036,8.76467509
MDE011,MDE011,MEDE Dei Mille/Martiri Libertà,45.09112578,8.72968995
MDT003,MDT003,"MOLINO DEI TORTI Marconi, 49",45.02645185,8.89647382
MDT004,MDT004,"MOLINO DEI TORTI Marconi, 49",45.02607462,8.89600221
MEN001,MEN001,MENCONICO Collegio - SP461,44.80953792,9.26885762
MEN002,MEN002,MENCONICO Collegio - SP461,44.80955769,9.26890238
MEN003,MEN003,MENCONICO Canova - SP186,44.80222561,9.24005812
MEN004,MEN004,MENCONICO Canova - SP186,44.80224785,9.24011863
MEN005,MEN005,MENCONICO Giarola - SP461,44.81214338,9.24707496
MEN006,MEN006,MENCONICO Giarola - SP461,44.81208929,9.24714927
MEN007,MEN007,"MENCONICO Capoluogo, 39",44.79635364,9.2803351
MEN008,MEN008,"MENCONICO Capoluogo, 39",44.79633672,9.28031679
MEN010,MEN010,MENCONICO Riva - SP39,44.80257209,9.2802753
MEN011,MEN011,MENCONICO S.Pietro Casasco - SP461,44.80977921,9.23865738
MEN012,MEN012,MENCONICO S.Pietro Casasco - SP461,44.8097232,9.23880903
MEN013,MEN013,MENCONICO Ca' del Bosco - SP461,44.80941672,9.26038103
MEN014,MEN014,MENCONICO Ca' del Bosco - SP461,44.80963312,9.26019837
MEN015,MEN015,MENCONICO Mulino S.Pietro - SP186,44.80429924,9.23726537
MEN016,MEN016,MENCONICO Mulino S.Pietro - SP186,44.80433723,9.23717448
MEN017,MEN017,MENCONICO Riva - SP39,44.80250818,9.28025212
MGO001,MGO001,MARCIGNAGO Cascina Brusada - SP11,45.24079822,9.07987793
MGO002,MGO002,MARCIGNAGO Cascina Brusada - SP11,45.24102084,9.07998059
MGO003,MGO003,MARCIGNAGO Per Toradello/Umberto I,45.25775161,9.07617655
MGO004,MGO004,MARCIGNAGO Libertà/Re,45.25445095,9.07451648
MGO005,MGO005,MARCIGNAGO Divisa - SP11,45.23656084,9.08559517
MGO006,MGO006,MARCIGNAGO Divisa - SP11,45.23587312,9.08619477
MGO007,MGO007,"MARCIGNAGO Umberto I, 5 (Campo Sportivo)",45.25758825,9.07694758
MGO008,MGO008,MARCIGNAGO Giovanni Paolo II,45.25433956,9.07796418
MGO009,MGO009,MARCIGNAGO Umberto I/Daccò,45.2513519,9.07793796
MGO010,MGO010,MARCIGNAGO Villaggio Europa - Umberto I,45.25131943,9.07756723
MLN200,MLN200,MILANO Famagosta M2 (Arrivi),45.43532147,9.1696165
MLN201,MLN201,MILANO Cermenate/Volvinio,45.43737748,9.18295973
MLN202,MLN202,MILANO Famagosta M2 - Autostazione,45.43652058,9.16852192
MLN205,MLN205,MILANO Cermenate/Volvinio,45.43733397,9.18402064
MLN211,MLN211,MILANO Romolo FS/M2,45.44250871,9.16804317
MLN214,MLN214,MILANO Cermenate/Montegani,45.43736014,9.17876776
MLN215,MLN215,MILANO Cermenate/Montegani,45.43749649,9.17881905
MLN216,MLN216,MILANO Ripamonti/Quintosole,45.40306078,9.20871376
MLN217,MLN217,MILANO Ripamonti/Camporgnago,45.39954092,9.2099807
MLN218,MLN218,MILANO Ripamonti/Macconago (IEO),45.41376098,9.20629155
MLN219,MLN219,MILANO Ripamonti/Macconago (IEO),45.41395098,9.20649076
MLN220,MLN220,MILANO Ripamonti/Quintosole,45.40297625,9.20914926
MLN221,MLN221,"MILANO Ripamonti, 514",45.40745095,9.20787916
MLN222,MLN222,"MILANO Ripamonti, 514",45.40740054,9.20809435
MLN224,MLN224,MILANO Vigentino - Ripamonti,45.42123584,9.20333287
MLN237,MLN237,MILANO Ripamonti/Camporgnago,45.39945898,9.20953245
MNA001,MNA001,MORNICO LOSANA Libertà (Municipio),45.01045388,9.20494367
MNO001,MNO001,"MONTESCANO Pianazza, 45 (Bivio Molinazzo)",45.02264036,9.29945726
MNO002,MNO002,MONTESCANO Pozzolo - Pianazza,45.03050745,9.29942745
MNO003,MNO003,MONTESCANO Roncole (Municipio),45.03183119,9.295385
MNO004,MNO004,MONTESCANO Roncole (Municipio),45.03181255,9.29537693
MNO005,MNO005,"MONTESCANO Pianazza, 45 (Bivio Molinazzo)",45.02289228,9.299333
MNO006,MNO006,MONTESCANO Pozzolo - Pianazza,45.03060195,9.29940936
MNO007,MNO007,CANNETO PAVESE Roncole - SP201,45.03668344,9.29943494
MPA004,MPA004,MONTICELLI PAVESE Chignolo/Plana,45.1119753,9.51523181
MPA005,MPA005,MONTICELLI PAVESE Chignolo/Plana,45.11174199,9.51513116
MPA006,MPA006,MONTICELLI PAVESE Cimitero,45.11056657,9.5207691
MPE002,MPE002,MONTALTO PAVESE Ca' del Fosso - SP38,44.95150996,9.22370959
MPE004,MPE004,MONTALTO PAVESE Casa Tacconi - SP188,44.97905445,9.19130088
MPE005,MPE005,MONTALTO PAVESE Casa Tacconi - SP188,44.97902812,9.19128612
MPE006,MPE006,MONTALTO PAVESE Costa Bruciata - SP44,44.97821292,9.22320587
MPE007,MPE007,MONTALTO PAVESE Finigeto - SP44,44.99059222,9.24623523
MPE008,MPE008,"MONTALTO PAVESE Vittorio Veneto, 5",44.97914814,9.21060979
MPE009,MPE009,"MONTALTO PAVESE Vittorio Veneto, 5",44.97891064,9.21103388
MPE010,MPE010,MONTALTO PAVESE Villa - SP38,44.95633988,9.21615586
MPE012,MPE012,MONTALTO PAVESE Ponte Carmelo - SP38,44.96339031,9.20860697
MPE014,MPE014,MONTALTO PAVESE Costa Grossa (Costaiola) - SP44,44.99326523,9.23752342
MPE015,MPE015,MONTALTO PAVESE Costa Grossa (Costaiola) - SP44,44.99321442,9.23753514
MPE019,MPE019,MONTALTO PAVESE Finigeto - SP44,44.99043675,9.24606083
MPE020,MPE020,MONTALTO PAVESE Palazzina - SP198,44.98882453,9.25759143
MPE021,MPE021,MONTALTO PAVESE Palazzina - SP198,44.98881424,9.2577159
MPE025,MPE025,"MONTALTO PAVESE Roma, 1",44.97903582,9.20952547
MRA001,MRA001,MORTARA FS - Marconi,45.25224223,8.73241586
MRA002,MRA002,MORTARA Trento (Campo Sportivo),45.25494463,8.74290943
MRA003,MRA003,MORTARA Trento (Campo Sportivo),45.25507817,8.74297029
MRA004,MRA004,MORTARA Casoni dei Peri - Della Cattanea,45.26508093,8.79006022
MRA005,MRA005,MORTARA Casoni dei Peri - Della Cattanea,45.26499669,8.79004569
MRA006,MRA006,MORTARA Cattanea - Milano/Della Morsella,45.26821551,8.78977448
MRA007,MRA007,MORTARA Molino Faenza - Della Cattanea,45.26059906,8.79242126
MRA009,MRA009,MORTARA Cattanea - Milano/Della Morsella,45.26808261,8.78981991
MRA010,MRA010,MORTARA Lomellina (Zona Commerciale),45.24338249,8.74577629
MRA011,MRA011,MORTARA Carlo Magno (Auditorium),45.24938806,8.74355125
MRA013,MRA013,MORTARA Lomellina (Zona Commerciale),45.24340601,8.74587458
MRA014,MRA014,MORTARA Carlo Magno (Auditorium),45.24916927,8.74333075
MRA015,MRA015,MORTARA Molino Faenza - Della Cattanea,45.26052199,8.79259943
MRB001,MRB001,MEZZANA RABATTONE Marconi/Valentich,45.09559112,9.03087952
MRB002,MRB002,MEZZANA RABATTONE Marconi/Privata,45.09541914,9.03484892
MRB003,MRB003,MEZZANA RABATTONE Marconi/Valentich,45.09552384,9.03082046
MRB004,MRB004,MEZZANA RABATTONE Marconi/Privata,45.09531218,9.0348634
MSE001,MSE001,MONTESEGALE Case del Molino (Castello),44.91229604,9.13133742
MSE002,MSE002,MONTESEGALE Case del Molino (Castello),44.91231292,9.13107686
MSE003,MSE003,MONTESEGALE Fornace - SP184,44.91018853,9.14055893
MSE005,MSE005,MONTESEGALE Fornace - SP184,44.9101533,9.14083379
MTE001,MTE001,MIRADOLO TERME Terme - SP189,45.1888876,9.4220501
MTE002,MTE002,MIRADOLO TERME Terme - SP189,45.18885284,9.42196131
MTE004,MTE004,"MIRADOLO TERME Camporinaldo - Della Libertà, 45",45.16188525,9.4679629
MTE005,MTE005,"MIRADOLO TERME Garibaldi, 75",45.16954329,9.44639558
MTE006,MTE006,"MIRADOLO TERME Garibaldi, 75",45.16978055,9.44626309
MTE010,MTE010,MIRADOLO TERME Del Comune (Municipio),45.17119101,9.44258449
MTE011,MTE011,MIRADOLO TERME Del Comune (Municipio),45.17130324,9.44275574
MTE012,MTE012,MIRADOLO TERME Marconi/Dogliani,45.16471938,9.44693055
MTE013,MTE013,MIRADOLO TERME Marconi/Dogliani,45.16467918,9.44679523
MTE014,MTE014,MIRADOLO TERME Roma/Degli Spinedi,45.17428851,9.43940451
MTE015,MTE015,"MIRADOLO TERME Roma, 172",45.17718684,9.43404935
MTE016,MTE016,"MIRADOLO TERME Roma, 172",45.17714985,9.43415027
MTE017,MTE017,MIRADOLO TERME Roma/Degli Spinedi,45.17434273,9.43929144
MVE001,MVE001,MONTECALVO VERSIGGIA Colombato - SP201,44.96174046,9.27663539
MVE002,MVE002,MONTECALVO VERSIGGIA Colombato - SP201,44.96165419,9.27642799
MVE003,MVE003,MONTECALVO VERSIGGIA Crocetta (Comune),44.97115858,9.28469375
MVE004,MVE004,MONTECALVO VERSIGGIA Crocetta (Comune),44.97113758,9.28464098
MVE005,MVE005,MONTECALVO VERSIGGIA Piane - SP201,44.96563275,9.28164012
MVE006,MVE006,MONTECALVO VERSIGGIA Piane - SP201,44.96554219,9.2817097
MVE007,MVE007,S.MARIA DELLA VERSA Croce Bianca - SP201,44.9721244,9.2971178
MVE008,MVE008,S.MARIA DELLA VERSA Croce Bianca - SP201,44.97204721,9.29728451
MVT001,MVT001,"MOTTA VISCONTI Garibaldi, 2",45.28602593,8.99340657
MVT002,MVT002,"MOTTA VISCONTI Garibaldi, 2",45.28602759,8.99332273
MVT003,MVT003,MOTTA VISCONTI Del Cimitero (Cimitero),45.28179838,8.99631542
MVT004,MVT004,MOTTA VISCONTI Del Cimitero,45.28219068,8.99629722
MVT005,MVT005,MOTTA VISCONTI Repubblica/Vittorio Veneto,45.28598316,8.99542176
MVT006,MVT006,MOTTA VISCONTI S.Rocchino - Borgomaneri/De Gasperi,45.29084847,8.98659012
MVT007,MVT007,MOTTA VISCONTI Cavour/XIV Luglio 1994,45.29014408,8.9989445
MVT008,MVT008,MOTTA VISCONTI Cavour/XIV Luglio 1994,45.29015515,8.99905753
MVT009,MVT009,"MOTTA VISCONTI Cavour, 8",45.28802416,8.99582204
MVT010,MVT010,"MOTTA VISCONTI S.Rocchino - De Gasperi, 6",45.28944195,8.98605024
MVT011,MVT011,MOTTA VISCONTI Matteotti/Possi,45.28527125,8.98794641
MVT012,MVT012,MOTTA VISCONTI Matteotti/Possi,45.28520691,8.98805071
MVT013,MVT013,MOTTA VISCONTI Soriani/Borgomaneri,45.28734358,8.99300525
MVT014,MVT014,MOTTA VISCONTI Enzo Ferrari/del Cavo,45.28659647,8.99792201
MZA001,MZA001,"MEZZANINO Busca, 48",45.13511769,9.21712189
MZA002,MZA002,"MEZZANINO Busca, 48",45.13522702,9.21703362
MZA003,MZA003,"MEZZANINO Busca - Tornello, 1",45.13187266,9.22293271
MZA004,MZA004,"MEZZANINO Busca - Tornello, 1",45.13192026,9.22295237
MZA005,MZA005,MEZZANINO Palazzo (Bivio Palazzo),45.11633778,9.21109032
MZA006,MZA006,MEZZANINO Palazzo (Bivio Palazzo),45.11627873,9.21107161
MZA007,MZA007,MEZZANINO Tornello - SP617,45.12986639,9.2267045
MZA008,MZA008,MEZZANINO Tornello - SP617,45.12968877,9.22694779
MZA009,MZA009,MEZZANINO Roma (Chiesa),45.12635064,9.20604412
MZA010,MZA010,MEZZANINO Roma (Chiesa),45.12621807,9.20601626
MZA011,MZA011,MEZZANINO Tornello (Bivio SP15),45.12040794,9.23213458
MZA012,MZA012,MEZZANINO Tornello (Bivio SP15),45.12030919,9.23180638
MZA013,MZA013,MEZZANINO Roma/Cassinetta/Malpensata di Sotto,45.12981603,9.20479442
MZA014,MZA014,MEZZANINO Roma/Cassinetta/Malpensata di Sotto,45.12987256,9.20440033
MZA015,MZA015,MEZZANINO SP15 Marconi/Palazzo,45.12023621,9.20951306
MZA016,MZA016,MEZZANINO SP15 Marconi/Palazzo,45.12035971,9.20970076
MZB001,MZB001,MEZZANA BIGLI Balossa Bigli (Savasini) - SP206,45.07368014,8.90343609
MZB002,MZB002,MEZZANA BIGLI Roma/Gramsci,45.05976014,8.84645635
MZB005,MZB005,MEZZANA BIGLI Roma/Gramsci,45.05974694,8.84636074
MZB006,MZB006,MEZZANA BIGLI Balossa Bigli (Savasini) - SP206,45.07405709,8.90337292
MZO001,MZO001,MARZANO Cascina Bianca (Cascina Montepagano),45.26240041,9.27661656
MZO002,MZO002,MARZANO Cascina Bianca (Cascina Montepagano),45.26251417,9.27661681
MZO003,MZO003,TORREVECCHIA PIA Cascina Bianca - SP9/Iotti,45.26835702,9.27348835
MZO004,MZO004,TORREVECCHIA PIA Cascina Bianca - SP9/Iotti,45.2683561,9.27359747
MZO005,MZO005,"TORREVECCHIA PIA Cascina Bianca - SP9, 11",45.26637531,9.2750173
MZO006,MZO006,"TORREVECCHIA PIA Cascina Bianca - SP9, 11",45.26611216,9.27501449
MZO007,MZO007,MARZANO Spirago - Bergamaschi/Borgo,45.25495239,9.28616993
MZO008,MZO008,MARZANO Spirago - Bergamaschi/Borgo,45.25472329,9.28647004
MZO009,MZO009,"MARZANO Al Dosso, 44",45.24662342,9.29833056
MZO010,MZO010,"MARZANO Al Dosso, 44",45.24657175,9.29822346
MZO011,MZO011,MARZANO Roma (Posta),45.24805374,9.29538842
MZO012,MZO012,MARZANO Roma (Posta),45.24800934,9.29533661
NOR001,NOR001,NOVARA Autostazione - Pastore,45.44600635,8.62989971
NOR002,NOR002,NOVARA Milano/Calderara,45.44462419,8.64502813
NOR003,NOR003,NOVARA Curtatone (Istituti),45.44323393,8.62952741
NOR004,NOR004,NOVARA Milano/Sconfietti,45.44460033,8.64492292
NOR006,NOR006,NOVARA Curtatone (Istituti),45.44355786,8.62912329
OBI001,OBI001,OTTOBIANO S.Michele/Gambarana,45.15421837,8.82896283
OBI002,OBI002,OTTOBIANO S.Michele/Pellico,45.15438076,8.82868622
OBI003,OBI003,OTTOBIANO Italia/Marconi,45.15307085,8.83013825
OBI004,OBI004,OTTOBIANO Italia/Marconi,45.15269816,8.83026052
OGE001,OGE001,MORNICO LOSANA Losana - SP46,45.00805328,9.1919781
OGE002,OGE002,MORNICO LOSANA Losana - SP46,45.00796376,9.19195047
OGE003,OGE003,OLIVA GESSI Fornace - Novellina,45.00505664,9.16992226
OGE004,OGE004,OLIVA GESSI Tenuta Vinicola - SP46,45.00365545,9.17817057
OGE006,OGE006,OLIVA GESSI Tenuta Vinicola - SP46,45.00375206,9.17824844
OPR001,OPR001,OPERA Dosso Cavallino - SP28 Vigentina,45.36186514,9.2064169
OPR002,OPR002,OPERA Dosso Cavallino - SP28 Vigentina,45.36195913,9.20664268
OPR003,OPR003,"OPERA Noverasco - SS412, 1",45.39485634,9.21093631
OPR004,OPR004,"OPERA Noverasco - SS412, 1",45.3939678,9.21140352
OPR005,OPR005,OPERA Berlinguer/Allende,45.37817414,9.21261652
OPR006,OPR006,OPERA Berlinguer/Dante,45.3774137,9.21240286
OPR008,OPR008,OPERA Diaz/S.Francesco,45.37423951,9.21165028
OPR009,OPR009,OPERA Diaz/Manara,45.37089517,9.21070143
OPR010,OPR010,OPERA Diaz/Mameli,45.37052114,9.21033842
OPR011,OPR011,OPERA Diaz/S.Francesco,45.37438408,9.21195265
OPR012,OPR012,OPERA S.Francesco/Lombardia,45.37404432,9.2122523
OPR013,OPR013,OPERA S.Francesco/Lombardia,45.37355208,9.21252885
OPR014,OPR014,OPERA S.Francesco/Romagna,45.37133927,9.21338475
OPR015,OPR015,OPERA S.Francesco/Romagna,45.37040668,9.21398014
PAV004,PAV004,PAVIA Trento/Lucania,45.19524426,9.17663559
PAV005,PAV005,PAVIA Ferrini/S.Paolo,45.19099858,9.16917293
PAV008,PAV008,PAVIA Della Repubblica (Stadio Comunale),45.20369285,9.15219528
PAV009,PAV009,"PAVIA Brambilla, 102 (Tangenziale Ovest)",45.20496101,9.14874558
PAV011,PAV011,"PAVIA Brambilla, 70",45.20226893,9.14969311
PAV012,PAV012,"PAVIA Brambilla, 34",45.19884076,9.15094535
PAV013,PAV013,PAVIA Abbiategrasso (IIS Volta),45.20032394,9.13616126
PAV014,PAV014,PAVIA Ludovico il Moro (IPSIA Cremona),45.1936364,9.16226402
PAV015,PAV015,PAVIA Abbiategrasso (IIS Volta),45.20023293,9.13606771
PAV016,PAV016,PAVIA FS - Robecchi Brichetti,45.18989926,9.14556958
PAV017,PAV017,PAVIA Ludovico il Moro/Cattaneo,45.19482933,9.15959753
PAV018,PAV018,PAVIA Verona/Torino,45.1914485,9.18406953
PAV019,PAV019,PAVIA Ponzio (Istituto Clerici),45.1897144,9.20429128
PAV022,PAV022,PAVIA Castello (Musei Civici),45.18956492,9.15699081
PAV024,PAV024,"PAVIA Policlinico - Traumatologia, Infettivi",45.20059238,9.14610005
PAV025,PAV025,PAVIA Policlinico - Forlanini (Pediatria),45.19984354,9.14750808
PAV026,PAV026,PAVIA Policlinico - Centro Trasfusionale,45.19853033,9.14852899
PAV027,PAV027,"PAVIA Policlinico - Chirurgie, Medicine",45.19802827,9.14773323
PAV028,PAV028,"PAVIA Policlinico - Oculistica, Ostetricia",45.1961909,9.1471551
PAV029,PAV029,"PAVIA Policlinico - Rep. Speciali, Radiologia",45.19758232,9.14636423
PAV032,PAV032,PAVIA Policlinico - Centro Trasfusionale,45.19839208,9.14897586
PAV033,PAV033,PAVIA Policlinico - Forlanini (Pediatria),45.199864,9.1478764
PAV034,PAV034,"PAVIA Policlinico - Traumatologia, Infettivi",45.20070545,9.14613034
PAV035,PAV035,PAVIA Ca' della Terra,45.2065803,9.19127451
PAV036,PAV036,PAVIA Lardirago/Ca' della Terra,45.20684398,9.19044552
PAV037,PAV037,PAVIA Fasolo/Trento,45.19602131,9.17702802
PAV038,PAV038,PAVIA Bramante/SP35 (Parcheggio),45.16792058,9.14228536
PAV039,PAV039,PAVIA Lardirago/Ca' della Terra,45.20696933,9.1906897
PAV040,PAV040,PAVIA Della Repubblica (Parcheggio Naviglio),45.20252828,9.15345468
PAV043,PAV043,PAVIA Cassinino - SP35 Dei Giovi,45.22502862,9.14080465
PAV045,PAV045,PAVIA Vigentina (Casa Circondariale),45.20777889,9.1759782
PAV047,PAV047,PAVIA Castello (Musei Civici),45.18913065,9.15759752
PAV048,PAV048,PAVIA SP2/Vigne di Fossarmato,45.21881488,9.20346534
PAV049,PAV049,"PAVIA Ferrini, 12A",45.19072937,9.16802151
PAV050,PAV050,PAVIA Montebellino - SP11/Villalunga,45.2178316,9.11152477
PAV052,PAV052,PAVIA Cassinino - SP35 Dei Giovi,45.22511209,9.14089694
PAV053,PAV053,"PAVIA Fossarmato, 124 (Chiesa)",45.19484674,9.22094094
PAV054,PAV054,PAVIA Fossarmato/Trovamala,45.19258188,9.21982569
PAV055,PAV055,PAVIA Lodi/Ponzio (Zona Commerciale),45.19028957,9.20293366
PAV056,PAV056,PAVIA Fossarmato/Trovamala,45.19246866,9.21988191
PAV057,PAV057,PAVIA Fossarmato (Parco Giochi - Chiesa),45.19553417,9.22129356
PAV058,PAV058,PAVIA Scarpone,45.16861229,9.20948118
PAV059,PAV059,PAVIA Giulotto (Green Campus),45.20769263,9.1381516
PAV060,PAV060,PAVIA Boezio (Clinica del Lavoro),45.18942285,9.15040712
PAV061,PAV061,PAVIA Palestro/Ariberto,45.18782716,9.1485597
PAV062,PAV062,PAVIA Roma/XX Settembre,45.18724665,9.15374424
PAV063,PAV063,PAVIA Della Paiola (C.na Vignolo),45.198294,9.200883
PAV102,PAV102,PAVIA Montemaino/Boggioni,45.22173654,9.17367896
PAV103,PAV103,PAVIA Montemaino/Mirabello,45.22099287,9.17003717
PAV104,PAV104,PAVIA Mirabello/S.Bernardo,45.22092689,9.16657913
PAV105,PAV105,PAVIA Mirabello (Scuole),45.21845367,9.16584462
PAV106,PAV106,PAVIA Mirabello/Rampoldi,45.21653542,9.16521143
PAV107,PAV107,PAVIA Mirabello/Rizza,45.21466187,9.16439416
PAV108,PAV108,"PAVIA Mirabello, 22",45.21280787,9.16375031
PAV110,PAV110,PAVIA Rione Scala - D'Acquisto,45.2117181,9.16040636
PAV111,PAV111,"PAVIA Scala, 2",45.21141565,9.16285178
PAV113,PAV113,PAVIA Olevano/Cerise,45.20572531,9.16134251
PAV114,PAV114,PAVIA Olevano/Case Nuove dè Canonici,45.20358712,9.16071754
PAV115,PAV115,PAVIA Olevano/Spelta,45.20151969,9.16002407
PAV116,PAV116,PAVIA Olevano/Da Vigevano,45.19981109,9.15933056
PAV117,PAV117,PAVIA S.Giuseppe,45.19762442,9.15870102
PAV118,PAV118,PAVIA Bligny/Borgo Calvenzano,45.19246973,9.15815259
PAV119,PAV119,PAVIA Ludovico il Moro/Marconi,45.19365195,9.16221381
PAV120,PAV120,PAVIA Ludovico il Moro/Tasso,45.19246366,9.1641927
PAV121,PAV121,PAVIA Tasso/Alzaia,45.1913426,9.16331752
PAV122,PAV122,PAVIA Cairoli/Emanuele Filiberto,45.18940279,9.16128857
PAV123,PAV123,PAVIA Matteotti/Griziotti,45.18989295,9.15500583
PAV124,PAV124,PAVIA Strada Nuova/Italia,45.1876483,9.15624822
PAV125,PAV125,PAVIA Strada Nuova/Demetrio,45.1855268,9.15523266
PAV127,PAV127,PAVIA Strada Nuova/Maffi (P.te Coperto),45.18240457,9.15389188
PAV128,PAV128,PAVIA Ghinaglia (P.te Coperto),45.17981181,9.15248895
PAV129,PAV129,PAVIA Dei Mille/Beretta,45.17759917,9.15033372
PAV130,PAV130,PAVIA Dei Mille/Strada Persa,45.17472912,9.14855974
PAV131,PAV131,PAVIA Dei Mille/Gravellone,45.17185689,9.14580267
PAV145,PAV145,PAVIA Dei Mille/Gravellone,45.17180941,9.14592295
PAV146,PAV146,PAVIA Dei Mille/Vanzini,45.17509079,9.14890839
PAV147,PAV147,PAVIA Dei Mille/Pasino,45.17776627,9.15067124
PAV148,PAV148,PAVIA Ghinaglia (P.te Coperto),45.17963288,9.15248557
PAV149,PAV149,PAVIA Strada Nuova/Capsoni (P.te Coperto),45.18230194,9.15389924
PAV151,PAV151,PAVIA Strada Nuova/Demetrio,45.18624311,9.15559462
PAV152,PAV152,PAVIA Strada Nuova/Italia,45.18746244,9.1559906
PAV153,PAV153,PAVIA Matteotti/Petrarca,45.18947992,9.15492127
PAV155,PAV155,PAVIA Tasso/Colesino,45.19168245,9.16428456
PAV156,PAV156,PAVIA Ludovico il Moro/Albani,45.19243814,9.16433289
PAV157,PAV157,PAVIA Ludovico il Moro/Marconi,45.19376227,9.16211335
PAV158,PAV158,PAVIA Bligny/Borgo Calvenzano,45.19261207,9.15811881
PAV159,PAV159,PAVIA Scaramuzza/S.Giuseppe,45.19686878,9.15885411
PAV160,PAV160,PAVIA Olevano/Rossi,45.19933261,9.15928665
PAV161,PAV161,PAVIA Olevano/Caduti del Lavoro,45.20172602,9.16013373
PAV162,PAV162,PAVIA Olevano/Andreoli,45.2037652,9.160825
PAV163,PAV163,PAVIA Olevano/Cerise,45.2058555,9.16148943
PAV164,PAV164,PAVIA Olevano/Scala,45.21142088,9.16343553
PAV165,PAV165,PAVIA Mirabello/Pavesi,45.21307515,9.16408851
PAV166,PAV166,PAVIA Mirabello/Ridella,45.21474692,9.16449865
PAV167,PAV167,PAVIA Mirabello/Rampoldi,45.21664077,9.16536096
PAV168,PAV168,PAVIA Mirabello (Scuole),45.21847751,9.16591038
PAV169,PAV169,PAVIA S.Bernardo,45.22090248,9.16664059
PAV170,PAV170,PAVIA Montemaino/Mirabello,45.22102669,9.17037065
PAV171,PAV171,PAVIA Montemaino/Pizzocaro,45.22180317,9.17326128
PAV173,PAV173,PAVIA Garibaldi/Lotario,45.18121535,9.16567093
PAV174,PAV174,PAVIA Partigiani/Venezia,45.18146563,9.16904347
PAV175,PAV175,"PAVIA S.Giovannino, 7",45.1825169,9.17097851
PAV176,PAV176,PAVIA S.Giovannino (Cimitero),45.18455435,9.17101914
PAV177,PAV177,PAVIA S.Giovannino/Fiorentini,45.18757208,9.17047954
PAV178,PAV178,PAVIA S.Paolo/Campari,45.18919578,9.16960961
PAV180,PAV180,PAVIA Folperti/Torretta,45.19403702,9.16598024
PAV181,PAV181,PAVIA Folperti/Marconi,45.1953965,9.16307034
PAV182,PAV182,PAVIA Folperti/S.Giuseppe,45.19676821,9.1600083
PAV185,PAV185,PAVIA Indipendenza (ATS),45.19334627,9.15546854
PAV186,PAV186,PAVIA Indipendenza/Cuzio,45.19489413,9.1524617
PAV188,PAV188,PAVIA Trieste/Chiesa,45.19237481,9.15059119
PAV189,PAV189,PAVIA Matteotti/Lanfranco,45.19015603,9.15146406
PAV191,PAV191,PAVIA Cairoli/S.Maria alle Pertiche,45.18877924,9.16040146
PAV192,PAV192,PAVIA Cairoli/Carlo Alberto,45.18731233,9.15926543
PAV193,PAV193,PAVIA Sacchi/Sale,45.18492501,9.15823218
PAV194,PAV194,PAVIA Municipio (Comune),45.18457351,9.15969852
PAV195,PAV195,PAVIA Volta/Franchi Maggi,45.18452784,9.16126688
PAV196,PAV196,PAVIA Garibaldi/S.Giovanni in Borgo,45.18198221,9.1601224
PAV197,PAV197,PAVIA Montebolone - Amendola,45.17797124,9.20559777
PAV198,PAV198,PAVIA Cremona/Amati,45.17754148,9.2011
PAV199,PAV199,PAVIA Cremona/Tibaldi,45.17788087,9.19812013
PAV200,PAV200,PAVIA Cremona/Scarenzio,45.17854578,9.19424215
PAV201,PAV201,PAVIA Cremona/Salimbeni,45.17932416,9.19025563
PAV202,PAV202,PAVIA Cremona/Pollaioli,45.18001862,9.18671547
PAV203,PAV203,PAVIA S.Pietro in Verzolo/Maggi,45.18091802,9.18161225
PAV204,PAV204,PAVIA Montegrappa/Donegani,45.18202867,9.17595393
PAV205,PAV205,PAVIA Partigiani/Dossi,45.18228452,9.17362126
PAV206,PAV206,PAVIA Partigiani/S.Giovannino,45.18182143,9.1706681
PAV207,PAV207,PAVIA Partigiani/Sardegna,45.18141765,9.16782895
PAV208,PAV208,PAVIA Gorizia/Garibaldi,45.18195146,9.16622885
PAV209,PAV209,PAVIA Gorizia/Calchi,45.18411833,9.16479609
PAV210,PAV210,PAVIA Scopoli/S.Epifanio,45.18487351,9.16268319
PAV211,PAV211,PAVIA Municipio (Comune),45.18462148,9.1596861
PAV212,PAV212,PAVIA Trento/Monferrato,45.19489122,9.17674653
PAV215,PAV215,PAVIA Cavour/Palestro,45.18709607,9.14753952
PAV216,PAV216,PAVIA FS - Della Stazione,45.18851817,9.1459001
PAV217,PAV217,PAVIA Filzi/Dante,45.19065433,9.14954347
PAV218,PAV218,PAVIA Olevano/Briosco,45.21072307,9.16307188
PAV219,PAV219,PAVIA Golgi (Policlinico S.Matteo),45.19579571,9.14876411
PAV220,PAV220,PAVIA Golgi/Taramelli,45.19565771,9.14680928
PAV222,PAV222,PAVIA Taramelli/Forlanini,45.19859167,9.14396904
PAV223,PAV223,PAVIA Taramelli/Donatori del Sangue (AVIS),45.19971701,9.14263697
PAV224,PAV224,PAVIA Ferrata (Tangenziale Ovest),45.20184327,9.13993508
PAV225,PAV225,PAVIA Maugeri (Istituti Maugeri - Mondino),45.20344071,9.14070618
PAV226,PAV226,PAVIA Ferrata/Abbiategrasso,45.20286309,9.13387152
PAV227,PAV227,PAVIA Tibaldi/Cervi,45.19989082,9.13105801
PAV228,PAV228,PAVIA Cascina Pelizza - Tibaldi,45.1988031,9.12938801
PAV229,PAV229,PAVIA S.Lanfranco/Tevere,45.19447136,9.12613496
PAV230,PAV230,PAVIA Della Repubblica - Gramegna,45.20481667,9.1511519
PAV231,PAV231,PAVIA S.Lanfranco/Tevere,45.19438353,9.12651102
PAV232,PAV232,PAVIA Cascina Pelizza - Tibaldi,45.19818755,9.12877021
PAV233,PAV233,PAVIA Tibaldi/Cervi,45.19987994,9.13115442
PAV234,PAV234,PAVIA Ferrata/Abbiategrasso,45.20298343,9.13417481
PAV235,PAV235,PAVIA Maugeri (Istituti Maugeri - Mondino),45.20330465,9.14106442
PAV236,PAV236,PAVIA Ferrata (Tangenziale Ovest),45.20183086,9.13981061
PAV237,PAV237,PAVIA Taramelli (AVIS),45.19947506,9.1426263
PAV238,PAV238,PAVIA Taramelli/Bassi,45.19774833,9.14429881
PAV239,PAV239,PAVIA Golgi/Taramelli,45.19561003,9.14693767
PAV240,PAV240,PAVIA Golgi (Policlinico S.Matteo),45.19569409,9.14836172
PAV241,PAV241,PAVIA Trieste/Longobardi,45.1933043,9.15133477
PAV242,PAV242,PAVIA Trieste/Filzi,45.1905827,9.1478986
PAV243,PAV243,PAVIA FS - Della Stazione,45.18849384,9.14564121
PAV244,PAV244,PAVIA Cavour/Della Minerva,45.18696384,9.14801474
PAV245,PAV245,PAVIA Cavour/Tribunale (Palazzo di Giustizia),45.18630689,9.15080533
PAV247,PAV247,PAVIA Mazzini/Cavallotti,45.18508707,9.15673175
PAV248,PAV248,PAVIA Scopoli/Franchi Maggi,45.1847403,9.1619293
PAV250,PAV250,PAVIA Gorizia/Garibaldi,45.18177289,9.16619297
PAV251,PAV251,PAVIA Partigiani/S.Giovannino,45.18185305,9.17143049
PAV252,PAV252,PAVIA Montegrappa/Dossi,45.1821307,9.1748985
PAV253,PAV253,PAVIA S.Pietro in Verzolo (Chiesa),45.18079582,9.18184119
PAV254,PAV254,PAVIA Cremona/Francana,45.17986225,9.18716633
PAV255,PAV255,PAVIA Cremona/Giardini,45.17916417,9.19072417
PAV256,PAV256,PAVIA Cremona/Scarenzio,45.17818053,9.19531521
PAV257,PAV257,PAVIA Cremona/Tibaldi,45.17774096,9.19878893
PAV258,PAV258,PAVIA Cremona/Grumello,45.17733337,9.20217198
PAV259,PAV259,PAVIA Vallone - Gramsci,45.1924943,9.19035671
PAV260,PAV260,PAVIA Nenni/Camera,45.19295918,9.19217074
PAV261,PAV261,PAVIA Nenni/De Gasperi,45.19461135,9.19087657
PAV262,PAV262,PAVIA Don Sturzo/Della Paiola,45.19555111,9.18843381
PAV263,PAV263,PAVIA Pensa/Della Paiola,45.1960099,9.18473551
PAV264,PAV264,PAVIA Pensa/Bologna,45.19781745,9.18421069
PAV265,PAV265,PAVIA Tavazzani/Lardirago,45.19972366,9.18146804
PAV266,PAV266,PAVIA Tavazzani (Piazzale),45.19919675,9.17977532
PAV267,PAV267,PAVIA Tavazzani/Lardirago,45.19974427,9.18165246
PAV268,PAV268,PAVIA Pensa/Broni,45.19892984,9.18331646
PAV269,PAV269,PAVIA Pensa/Maciachini,45.19618619,9.18475887
PAV270,PAV270,PAVIA Della Paiola/Pensa,45.19547813,9.18363058
PAV271,PAV271,PAVIA Della Paiola/Solferino,45.19495158,9.18112232
PAV276,PAV276,PAVIA Fasolo/Brianza,45.1939049,9.17376604
PAV277,PAV277,PAVIA Addobbati/Fasolo,45.19309007,9.17258055
PAV279,PAV279,PAVIA S.Paolo/Ferrini,45.19063559,9.16871867
PAV280,PAV280,PAVIA Campari/S.Paolo,45.18868181,9.16934361
PAV281,PAV281,PAVIA Campari/Ferrini,45.18898138,9.16729822
PAV282,PAV282,PAVIA Bligny/Tasso,45.19067724,9.16233842
PAV283,PAV283,PAVIA Della Repubblica (Porta Milano),45.1935536,9.15723902
PAV284,PAV284,PAVIA XI Febbraio (Porta Milano),45.19227457,9.15677237
PAV286,PAV286,PAVIA Matteotti/Dante,45.19039018,9.15217318
PAV287,PAV287,PAVIA Manzoni/Guidi,45.18732722,9.14543415
PAV288,PAV288,PAVIA Manzoni/Da Pavia,45.18762259,9.14298403
PAV289,PAV289,PAVIA Riviera/Folla di Sopra,45.18812403,9.13878623
PAV290,PAV290,PAVIA Riviera (Ex Arsenale Militare),45.18856964,9.1357012
PAV291,PAV291,PAVIA Riviera/Vivai,45.19090315,9.13242597
PAV292,PAV292,PAVIA S.Lanfranco (Cimitero),45.19364185,9.13013812
PAV293,PAV293,PAVIA S.Lanfranco/Del Colombarone,45.19465149,9.12388491
PAV294,PAV294,"PAVIA Mascherpa, 47",45.19521565,9.12045158
PAV295,PAV295,"PAVIA Mascherpa, 61",45.19538628,9.11895002
PAV296,PAV296,PAVIA Chiozzo/Turati,45.19597192,9.11579963
PAV297,PAV297,PAVIA Chiozzo/Grandi,45.1962781,9.11401562
PAV298,PAV298,PAVIA Chiozzo/Colorni,45.19701396,9.11137846
PAV299,PAV299,"PAVIA Sora, 12A",45.19832665,9.10736693
PAV300,PAV300,PAVIA Sora/Strada Molinazzo,45.1999897,9.10507297
PAV301,PAV301,PAVIA Sora (C.na Molinazzo),45.20251131,9.1025364
PAV302,PAV302,PAVIA Sora/Strada Molinazzo,45.1997698,9.10522627
PAV303,PAV303,"PAVIA Sora, 17",45.19840274,9.10724172
PAV304,PAV304,PAVIA Chiozzo/Colorni,45.1968961,9.1116351
PAV305,PAV305,PAVIA Chiozzo/Labriola,45.19647869,9.11348077
PAV306,PAV306,PAVIA Chiozzo/Turati,45.19578798,9.11658859
PAV307,PAV307,"PAVIA Mascherpa, 61",45.19545417,9.11874966
PAV308,PAV308,PAVIA Policlinico - Ingresso Principale,45.19645224,9.14866043
PAV309,PAV309,PAVIA S.Lanfranco/Del Colombarone,45.19475194,9.12350079
PAV310,PAV310,PAVIA S.Lanfranco (Cimitero),45.19385755,9.12958216
PAV311,PAV311,PAVIA Riviera/Strada,45.19110591,9.13214587
PAV312,PAV312,PAVIA Riviera (Ex Arsenale Militare),45.18853397,9.13555847
PAV313,PAV313,PAVIA Riviera/Gragnani,45.18796673,9.13970002
PAV314,PAV314,PAVIA Manzoni/Da Pavia,45.1875714,9.14288843
PAV315,PAV315,PAVIA FS - Della Stazione,45.18812658,9.14534415
PAV316,PAV316,PAVIA Battisti/Della Minerva,45.1875023,9.14745887
PAV317,PAV317,PAVIA XI Febbraio (Porta Milano),45.19166689,9.15673788
PAV319,PAV319,PAVIA Bligny/Morosi,45.19075275,9.16197343
PAV320,PAV320,PAVIA Campari/Sicilia,45.18899408,9.16661175
PAV321,PAV321,PAVIA Campari/S.Giovannino,45.18853493,9.16972065
PAV322,PAV322,PAVIA Parco Vecchio/Poma,45.19197606,9.16818669
PAV324,PAV324,PAVIA Fasolo/Addobbati,45.19295319,9.17262088
PAV325,PAV325,PAVIA Fasolo/Liguria,45.19420113,9.17410197
PAV328,PAV328,PAVIA Solferino/Mortara,45.19248044,9.18141078
PAV332,PAV332,PAVIA Della Paiola/Torino,45.19503051,9.18179214
PAV333,PAV333,PAVIA Della Paiola/Pastrengo,45.19576438,9.18555633
PAV334,PAV334,PAVIA Don Sturzo/Della Paiola,45.19555568,9.1881916
PAV335,PAV335,PAVIA Nenni/De Gasperi,45.19448212,9.19136296
PAV336,PAV336,"PAVIA Nenni, 192",45.19267133,9.19195118
PAV337,PAV337,PAVIA FS - Della Stazione,45.18831645,9.14553258
PAV340,PAV340,PAVIA Della Repubblica/Ludovico il Moro,45.1947721,9.15738959
PAV341,PAV341,PAVIA Scaramuzza/Ludovico il Moro,45.19524751,9.15933009
PAV342,PAV342,PAVIA Della Repubblica (Questura),45.19865816,9.15696154
PAV343,PAV343,PAVIA Della Repubblica/S.Giuseppe,45.19739873,9.15769458
PAV345,PAV345,"PAVIA Montebellino - SP11, 1210",45.22405746,9.10559045
PAV352,PAV352,PAVIA Tavazzani/Brusoni,45.19984332,9.18030847
PAV353,PAV353,PAVIA Pastrengo/Brescia,45.19394115,9.18544697
PAV354,PAV354,PAVIA Brescia/Torino,45.19332152,9.18326091
PAV356,PAV356,PAVIA Solferino/Casteggio,45.18986213,9.18259033
PAV357,PAV357,PAVIA Campari/Villa Eleonora,45.18742231,9.18025376
PAV358,PAV358,PAVIA Veneroni/Ciapessoni,45.18730464,9.17688712
PAV359,PAV359,PAVIA Stafforini (Cimitero),45.18539538,9.17575264
PAV360,PAV360,PAVIA Ciapessoni/Dolcini (Fu Gerla),45.18671881,9.1744039
PAV361,PAV361,PAVIA Ingrao/S.Giovannino,45.18675877,9.17141787
PAV362,PAV362,PAVIA LungoTicino Visconti/Rezia,45.18185234,9.15199018
PAV363,PAV363,PAVIA LungoTicino Visconti/Calcinara,45.18208368,9.14842788
PAV364,PAV364,PAVIA Montebello della Battaglia/Franchi,45.1826726,9.14563596
PAV365,PAV365,PAVIA Ticinello/Colombo,45.18371561,9.14328382
PAV366,PAV366,PAVIA Cavallini/Franchi,45.1841679,9.14589747
PAV367,PAV367,PAVIA Libertà/Della Minerva,45.18585701,9.14697122
PAV368,PAV368,PAVIA FS - Robecchi Brichetti,45.1894392,9.14492538
PAV369,PAV369,PAVIA Aselli/Golgi,45.1920284,9.14476859
PAV370,PAV370,PAVIA Aselli/Flarer,45.19331092,9.14374416
PAV371,PAV371,PAVIA Aselli/Cazzamali,45.19526818,9.14208986
PAV372,PAV372,PAVIA Aselli/Cagnoni,45.196296,9.14116893
PAV378,PAV378,PAVIA Aselli/Cagnoni,45.19695972,9.14063604
PAV379,PAV379,"PAVIA Moruzzi, 2",45.19482436,9.13954772
PAV380,PAV380,PAVIA Aselli/Cazzamali,45.19579283,9.14152321
PAV381,PAV381,PAVIA Aselli/Bargiggia,45.19394391,9.1431322
PAV383,PAV383,PAVIA Aselli/Lovati,45.19244177,9.14437033
PAV385,PAV385,PAVIA Manzoni/Guidi,45.18726431,9.14557547
PAV386,PAV386,PAVIA Cavallini/Franchi,45.18424645,9.14590211
PAV387,PAV387,PAVIA Ticinello/Colombo,45.18419309,9.14337388
PAV388,PAV388,PAVIA Montebello della Battaglia/Vittadini,45.18251975,9.14476476
PAV389,PAV389,PAVIA LungoTicino Visconti/Calcinara,45.1820456,9.14765711
PAV390,PAV390,PAVIA LungoTicino Visconti/Ballerini,45.18177152,9.15169341
PAV391,PAV391,PAVIA E. Filiberto/Necchi (Fontana),45.18942259,9.16253425
PAV392,PAV392,PAVIA Ingrao/S.Giovannino,45.18662961,9.17168304
PAV393,PAV393,PAVIA Dolcini (Fu Gerla)/Ciapessoni,45.18613183,9.17482659
PAV394,PAV394,PAVIA Stafforini (Cimitero),45.18531312,9.17633952
PAV395,PAV395,PAVIA Ciapessoni/Dolcini (Fu Gerla),45.1865912,9.17529613
PAV396,PAV396,PAVIA Veneroni/Ciapessoni,45.1872675,9.17699221
PAV397,PAV397,PAVIA Campari/Villa Eleonora,45.18727071,9.17991466
PAV398,PAV398,PAVIA Solferino/Cividale,45.19046838,9.18241374
PAV399,PAV399,PAVIA Gorizia/Scopoli (Mura Spagnole),45.18491253,9.16440565
PAV404,PAV404,PAVIA Tavazzani/Brusoni,45.1998051,9.180635
PAV405,PAV405,"PAVIA Ceva, 16",45.19979101,9.17783482
PAV406,PAV406,PAVIA Ceva/Marchesi,45.19911727,9.17638839
PAV407,PAV407,PAVIA Treves/Ortaglia Ospedale,45.20057791,9.17239855
PAV408,PAV408,PAVIA Treves/Vigentina,45.20088899,9.17079089
PAV409,PAV409,"PAVIA Vigentina, 17",45.19940364,9.16912668
PAV410,PAV410,PAVIA Della Torretta/Emilia,45.1970301,9.16812862
PAV411,PAV411,PAVIA Tasso/Della Torretta,45.19419163,9.16701332
PAV412,PAV412,PAVIA Tasso/Bona di Savoia,45.19292367,9.16617402
PAV413,PAV413,PAVIA FS - Della Stazione,45.18828671,9.14549515
PAV414,PAV414,PAVIA Tasso/Gaffurio,45.19289383,9.16627181
PAV415,PAV415,PAVIA Tasso/Della Torretta,45.19456432,9.1672619
PAV416,PAV416,PAVIA Torretta/Emilia,45.19630747,9.16793721
PAV417,PAV417,"PAVIA Vigentina, 17",45.19977971,9.1694108
PAV418,PAV418,PAVIA Treves/Vigentina,45.20091243,9.17031215
PAV419,PAV419,PAVIA Treves/Ortaglia Ospedale,45.20035525,9.17278182
PAV420,PAV420,PAVIA Marchesi,45.19997626,9.17702526
PAV423,PAV423,PAVIA Taramelli/Donatori del Sangue P,45.19971363,9.14264449
PAV424,PAV424,PAVIA Parco Vecchio (Istituto di Cura),45.19231021,9.16788072
PAV426,PAV426,PAVIA Scarpone,45.1681075,9.20924764
PAV427,PAV427,PAVIA Scarpone/Belvedere,45.16593702,9.21255107
PAV431,PAV431,"PAVIA Brambilla, 55 (Tangenziale Ovest)",45.20455194,9.14900339
PAV432,PAV432,"PAVIA Brambilla, 70",45.20258737,9.14968923
PAV433,PAV433,"PAVIA Brambilla, 34",45.19925739,9.15086815
PAV438,PAV438,PAVIA Della Repubblica - Gramegna,45.20448512,9.15124754
PAV439,PAV439,PAVIA Della Repubblica/S.Giuseppe,45.19601504,9.15750468
PAV441,PAV441,PAVIA Lardirago/Torre del Gallo,45.20125244,9.18421904
PAV442,PAV442,PAVIA Lardirago/Treves,45.19714719,9.17911494
PAV444,PAV444,PAVIA Mazzini/Galliano,45.18500317,9.15751562
PAV445,PAV445,PAVIA Fasolo/Trento,45.19610897,9.17705256
PAV446,PAV446,PAVIA Lardirago/Gambarana,45.19718079,9.17932384
PAV447,PAV447,PAVIA Lardirago/Torre del Gallo,45.20133704,9.18452888
PAV449,PAV449,PAVIA Scarpone/Don Albertario,45.1661212,9.21216446
PAV453,PAV453,PAVIA Vigentina/Piermarini,45.20353438,9.17090112
PAV457,PAV457,PAVIA Montegrappa (IPS Cossa),45.18129844,9.17926536
PAV458,PAV458,PAVIA Montegrappa (IPS Cossa),45.18138124,9.1792758
PAV464,PAV464,PAVIA Marchesi/Basilicata,45.1981003,9.17483181
PAV465,PAV465,PAVIA Libertà/Della Minerva,45.18601327,9.14688509
PAV467,PAV467,PAVIA Ferrata (Mondino),45.2028942,9.13942222
PAV468,PAV468,PAVIA Ferrata/Cascinazza,45.2040223,9.13778034
PAV469,PAV469,PAVIA Vigentina/Piermarini,45.20297159,9.1705708
PAV470,PAV470,PAVIA Cascinazza (Campus Aquae),45.20563092,9.13916273
PAV471,PAV471,PAVIA Della Paiola/Ferrari,45.19681239,9.19238625
PAV472,PAV472,PAVIA Della Paiola/Ferrari,45.19655064,9.1908104
PAV473,PAV473,PAVIA Mantegazza/Dell'Acqua,45.22262778,9.17566767
PAV477,PAV477,"PAVIA Montebellino - SP11, 1210",45.22419394,9.10565726
PAV478,PAV478,PAVIA Montebellino - SP11/Villalunga,45.21826555,9.1108856
PAV483,PAV483,"PAVIA Ferrini, 61",45.19069252,9.16806917
PAV486,PAV486,PAVIA SP2/Vigne di Fossarmato,45.21868986,9.20345255
PAV523,PAV523,PAVIA FS - Della Stazione,45.1883558,9.14539267
PAV525,PAV525,PAVIA Cairoli/E. Filiberto (P.ta Stoppa),45.18942279,9.1613794
PAV526,PAV526,PAVIA E. Filiberto/Argonne (Archi),45.18978141,9.1618276
PAV527,PAV527,PAVIA Montemaino/Dei Mantegazza,45.22166909,9.1766315
PAV534,PAV534,PAVIA Montemaino/Dei Mantegazza,45.22174494,9.17689411
PAV535,PAV535,PAVIA Emilia,45.1967603,9.17108256
PAV536,PAV536,PAVIA Marchesi/Emilia,45.19590815,9.17305232
PAV542,PAV542,PAVIA Vallone - Pastrengo,45.19312123,9.18589661
PAV547,PAV547,PAVIA Pastrengo/Lodi,45.18968077,9.18717607
PAV549,PAV549,PAVIA Pastrengo/Lodi,45.18964402,9.1870227
PAV554,PAV554,PAVIA Vallone - Pastrengo,45.19317585,9.18593314
PAV596,PAV596,PAVIA Vigentina/Cassani,45.20564763,9.17157954
PAV597,PAV597,PAVIA Vigentina/Cassani,45.20614318,9.17195876
PAV598,PAV598,PAVIA Del Colombarone,45.19515273,9.12231001
PAV601,PAV601,PAVIA Cascinazza/Ferrata,45.2046634,9.13767313
PAV602,PAV602,PAVIA Cascinazza/Maugeri,45.20467401,9.13777917
PAV603,PAV603,PAVIA Cerveteri/Capri,45.19414034,9.17800202
PAV604,PAV604,"PAVIA Cerveteri, 22",45.19408875,9.17820273
PAV715,PAV715,PAVIA Abbiategrasso (IIS Volta),45.20017781,9.13599441
PAV826,PAV826,PAVIA E. Filiberto/Argonne (Archi),45.1897569,9.16189636
PAV890,PAV890,PAVIA Autostazione,45.18959577,9.14703664
PBR001,PBR001,PORTALBERA XX Settembre/Cavour,45.10095723,9.32198183
PBR002,PBR002,PORTALBERA XX Settembre/Cavour,45.10101138,9.32196885
PBR005,PBR005,PORTALBERA XX Settembre/Po,45.09903671,9.31839949
PBR006,PBR006,PORTALBERA XX Settembre/Dei Rili,45.09902179,9.31776854
PBR009,PBR009,PORTALBERA Cassinassa - Stradella/Delle Betulle,45.09300578,9.31239261
PBR010,PBR010,PORTALBERA Cassinassa - Stradella/Monviso,45.09308743,9.31216322
PIC003,PIC003,"PIEVE DEL CAIRO Pecora, 22",45.04598493,8.79798244
PIC004,PIC004,"PIEVE DEL CAIRO Pecora, 22",45.04606334,8.7983166
PIC005,PIC005,PIEVE DEL CAIRO Ponte/Berbieri,45.05384791,8.80780641
PIC006,PIC006,PIEVE DEL CAIRO Ponte/Berbieri,45.05383557,8.8078661
PIG001,PIG001,PIETRA DE GIORGI Molino - SP198,45.0115808,9.25214172
PIG002,PIG002,PIETRA DE GIORGI Molino - SP198,45.01154672,9.25222162
PIG003,PIG003,PIETRA DE GIORGI Garibaldi (Posta),45.02188459,9.23050687
PIG004,PIG004,"PIETRA DE GIORGI Scorzoletta, 24",45.0205528,9.25294083
PIG005,PIG005,"PIETRA DE GIORGI Scorzoletta, 24",45.02052441,9.25290533
PIG009,PIG009,PIETRA DE GIORGI Garibaldi (Posta),45.02193132,9.23044465
PIP001,PIP001,"VERRUA PO SP82 Bottarone, 64",45.10848946,9.20001262
PIP002,PIP002,"VERRUA PO SP82 Bottarone, 64",45.10853049,9.20000057
PIP003,PIP003,PINAROLO PO Barbieri/M.ri Liberazione (Municipio),45.0681167,9.16743378
PIP004,PIP004,PINAROLO PO Barbieri/M.ri Liberazione (Municipio),45.06800398,9.16746256
PIZ001,PIZ001,PIZZALE Porana - SP23,45.04951309,9.05839047
PIZ002,PIZ002,PIZZALE Porana - SP23,45.04951741,9.05850037
PIZ003,PIZ003,PIZZALE Ferraris/Arcelli (Posta),45.03759473,9.0489203
PIZ004,PIZ004,PIZZALE Ferraris/Arcelli (Posta),45.03757839,9.04905808
PLA001,PLA001,"PIEVE ALBIGNOLA Roma, 67",45.11209641,8.95926975
PLA002,PLA002,"PIEVE ALBIGNOLA Roma, 67",45.11201999,8.95922023
PNA001,PNA001,PANCARANA Roma/Gavotti,45.07462169,9.05056387
PNA002,PNA002,PANCARANA Roma/Battisti,45.07461041,9.05047751
PNA003,PNA003,"PANCARANA Sauro, 4",45.07388133,9.04701809
PNA004,PNA004,"PANCARANA Sauro, 4",45.07368218,9.04712395
PNZ001,PNZ001,PONTE NIZZA Molino del Conte (Bivio S.Ponzo),44.84223354,9.10813294
PNZ002,PNZ002,PONTE NIZZA Molino del Conte (Bivio S.Ponzo),44.84261555,9.10771723
PNZ004,PNZ004,"PONTE NIZZA Casa Minchino - SP7, 25",44.8595085,9.11154511
PNZ005,PNZ005,"PONTE NIZZA Casa Minchino - SP7, 25",44.85949573,9.11157054
PNZ006,PNZ006,PONTE NIZZA Roma (Municipio),44.85163135,9.09718699
PNZ007,PNZ007,PONTE NIZZA Roma (Municipio),44.85161806,9.09711429
PNZ008,PNZ008,PONTE NIZZA Molino del Conte - Roma,44.84537422,9.10383349
PNZ009,PNZ009,PONTE NIZZA Molino del Conte - Roma,44.84544794,9.10394169
PNZ010,PNZ010,"PONTE NIZZA Roma, 10",44.85348383,9.0958345
PNZ011,PNZ011,"PONTE NIZZA Roma, 10",44.85348588,9.09570046
PPM001,PPM001,PIEVE P.TO MORONE Canova - Industria (Zona Industriale),45.12291097,9.43475051
PPM002,PPM002,PIEVE P.TO MORONE Canova - Industria (Zona Industriale),45.12274108,9.43514248
PPM003,PPM003,PIEVE P.TO MORONE Marconi/Ponte Vecchio,45.10739811,9.44250292
PPM004,PPM004,PIEVE P.TO MORONE Marconi/Ponte Vecchio,45.10757681,9.4420301
PPM005,PPM005,PIEVE P.TO MORONE Roma/Della Vittoria,45.11019328,9.43637138
PPM006,PPM006,PIEVE P.TO MORONE Roma/S.Vittore,45.11092282,9.43724767
PPM007,PPM007,"PIEVE P.TO MORONE Martiri della Libertà, 3",45.10791316,9.44168706
PPM008,PPM008,"PIEVE P.TO MORONE Cavallotti, 2",45.1079158,9.44267933
PPM009,PPM009,PIEVE P.TO MORONE Caduti/Rovescalina (Comune),45.11357542,9.43827555
PPM010,PPM010,PIEVE P.TO MORONE Caduti/Rovescalina (Comune),45.11332954,9.43828516
PRN001,PRN001,PARONA XXV Aprile/Carducci,45.28542662,8.7503019
PRN002,PRN002,PARONA XXV Aprile/Marinino,45.2856728,8.75031902
PRN003,PRN003,PARONA Toma/Roma,45.27943044,8.74871977
PRN004,PRN004,PARONA Dell'Offella,45.28195117,8.7493774
PRN005,PRN005,PARONA Toma/Gallesi,45.27942715,8.74877469
PRN006,PRN006,PARONA Dell'Offella,45.28191054,8.74939762
PVM001,PVM001,PIEVE EMANUELE Dei Pini/Abeti (Ex Quartiere INCIS),45.34629586,9.19585408
PVM002,PVM002,PIEVE EMANUELE Dei Pini/Abeti (Ex Quartiere INCIS),45.34638155,9.19566854
PVM011,PVM011,PIEVE EMANUELE Roma/Del Popolo,45.35553307,9.20145635
PVM012,PVM012,PIEVE EMANUELE Roma/Gemelli,45.35635834,9.2016019
PVM646,PVM646,PIEVE EMANUELE FS - Parco Agricolo Sud MI,45.33964426,9.20330667
REA001,REA001,REA Busoni (Comune),45.11579421,9.1559107
RED001,RED001,REDAVALLE SP10 Emilia/Garibaldi,45.03922847,9.20478032
RED002,RED002,REDAVALLE SP10 Emilia/Garibaldi,45.03915672,9.20402526
RET001,RET001,RIVANAZZANO Verdi/Rossini,44.93275845,9.02130039
RET002,RET002,RETORBIDO Umberto I/Roma (Municipio),44.94918679,9.03640255
RET003,RET003,RETORBIDO Voghera (Cimitero),44.95336844,9.03446977
RET005,RET005,RETORBIDO Umberto I/Roma (Municipio),44.94903508,9.03638368
RET007,RET007,RETORBIDO Umberto I/Allinovi,44.94718851,9.03568103
RET010,RET010,"RETORBIDO Umberto I, 41 (RSA)",44.94507123,9.03404374
ROE001,ROE001,ROVESCALA Ca' Nova - SP189,45.00247183,9.34096363
ROE002,ROE002,ROVESCALA Ca' Nova - SP189,45.00238033,9.34076915
ROE003,ROE003,ROVESCALA Croce - SP189,45.02222434,9.36131497
ROE004,ROE004,ROVESCALA Croce - SP189,45.02222678,9.36150833
ROE005,ROE005,ROVESCALA Pieve - SP189,45.00072805,9.33656792
ROE006,ROE006,ROVESCALA Pieve - SP189,45.00078267,9.33657156
ROE007,ROE007,ROVESCALA XVI Luglio 1944 (Chiesa),45.01227005,9.3493748
ROE008,ROE008,ROVESCALA XVI Luglio 1944 (Chiesa),45.01242296,9.34938217
ROE009,ROE009,"ROVESCALA Scazzolino, 83",45.00503299,9.32810339
ROE010,ROE010,"ROVESCALA Scazzolino, 83",45.00507493,9.32823724
ROE011,ROE011,ROVESCALA Cà Nicelli - SP189,44.99822139,9.32718609
ROE012,ROE012,ROVESCALA Cà Nicelli - SP189,44.99818618,9.32768644
ROG002,ROG002,ROCCA DE GIORGI Villa Fornace (Municipio),44.97100268,9.25281691
ROG003,ROG003,ROCCA DE GIORGI Villa Fornace (Municipio),44.97100421,9.25276357
ROM001,ROM001,ROMAGNESE SP412R (Bivio Vallerina),44.8472018,9.33150297
ROM002,ROM002,ROMAGNESE SP412R (Bivio Vallerina),44.84722044,9.33153561
ROM007,ROM007,ROMAGNESE Campolungo - SP412R,44.85815223,9.32140687
ROM008,ROM008,ROMAGNESE Campolungo - SP412R,44.85808941,9.32130961
ROM009,ROM009,ROMAGNESE SP412R (Bivio Costaiola e Ossio),44.84270689,9.33164289
ROM010,ROM010,ROMAGNESE SP412R (Bivio Costaiola e Ossio),44.84272607,9.33156262
ROM011,ROM011,ZAVATTARELLO Paniga' - SP412R,44.86051268,9.31478787
ROM012,ROM012,ZAVATTARELLO Panigà - SP412R,44.86041557,9.31474684
ROM013,ROM013,ROMAGNESE Roma (Pesa),44.83702858,9.32855643
ROM014,ROM014,ROMAGNESE Roma (Pesa),44.83710363,9.32849675
ROM015,ROM015,ROMAGNESE Caselotti (La Costa),44.83972365,9.33057715
ROM016,ROM016,ROMAGNESE Caselotti (La Costa),44.83964746,9.33038056
ROO001,ROO001,ROGNANO SP35 Dei Giovi (Villarasca),45.30120029,9.11196494
ROO003,ROO003,ROGNANO SP35 Dei Giovi (Villarasca),45.30104361,9.11189614
ROO004,ROO004,ROGNANO Villarasca - Delle Mondine,45.29758883,9.0987291
ROO005,ROO005,ROGNANO Roma (Chiesa),45.28703544,9.09102343
ROP001,ROP001,ROBECCO PAVESE S.Nazzaro/Roma,45.04871182,9.14901527
ROP002,ROP002,ROBECCO PAVESE S.Nazzaro/Roma,45.0487608,9.14894167
ROR001,ROR001,RONCARO Delle Roncaglie/Modena,45.2308921,9.27325435
ROR002,ROR002,RONCARO Delle Roncaglie/S.Agata,45.23088491,9.27332691
ROR003,ROR003,RONCARO Umberto I (Municipio),45.22601548,9.27621189
ROR004,ROR004,RONCARO Umberto I (Municipio),45.22625579,9.27577846
ROR005,ROR005,RONCARO Umberto I/Celesia,45.22847708,9.275678
ROR006,ROR006,RONCARO Umberto I/Celesia,45.22850475,9.2756146
ROS001,ROS001,ROCCA SUSELLA Ca' Rotta - SP20,44.94357963,9.1107208
ROS002,ROS002,ROCCA SUSELLA Ca' Rotta - SP20,44.94343954,9.11089122
ROS004,ROS004,ROCCA SUSELLA SP184/SP20 (Ca' Fabbri),44.90417192,9.10537937
ROS005,ROS005,ROCCA SUSELLA SP184/SP20 (Ca' Fabbri),44.90420492,9.10542075
ROS014,ROS014,ROCCA SUSELLA Giarone - SP184,44.89596527,9.08191793
ROS015,ROS015,ROCCA SUSELLA Giarone - SP184,44.89581264,9.08187902
RTE001,RTE001,ROSATE Delle Industrie/Da Vinci/Volta,45.34062425,9.01721251
RTE002,RTE002,ROSATE Circonvallazione/Mazzini,45.35236807,9.01595437
RTE003,RTE003,ROSATE Circonvallazione/Dante,45.34898745,9.01377817
RTE004,RTE004,ROSATE Circonvallazione/Dante,45.34905363,9.01392362
RTE005,RTE005,ROSATE Circonvallazione/Mazzini,45.35259101,9.01671641
RTE006,RTE006,ROSATE Delle Industrie/Da Vinci/Volta,45.34227099,9.01667874
RTE007,RTE007,ROSATE Europa/Don Gnocchi,45.35337989,9.02218284
RTE008,RTE008,ROSATE Europa/Giovanni XXIII,45.35336665,9.01965608
RTE009,RTE009,ROSATE Europa/Giovanni XXIII,45.35326375,9.02149405
RUI001,RUI001,RUINO Pometo - Dante,44.9275586,9.27496124
RUI002,RUI002,RUINO Carmine (Dimora),44.91169326,9.2638452
RUI003,RUI003,"RUINO Carmine - SP201, 9",44.91425868,9.2636771
RUI004,RUI004,RUINO Carmine Bivio - SP201,44.90394702,9.26046562
RUI005,RUI005,RUINO Torre degli Alberi,44.90146962,9.22858479
RUI006,RUI006,RUINO Pometo - Dante,44.92764347,9.27496323
RUI007,RUI007,"RUINO Carmine - SP201, 9",44.91438387,9.26369468
RUI008,RUI008,RUINO Carmine Bivio - SP201,44.90406573,9.26034336
RUI009,RUI009,RUINO Carmine (Dimora),44.91178543,9.26386669
RUI010,RUI010,RUINO Torre degli Alberi,44.9013688,9.22841741
RUI011,RUI011,RUINO Tre Venti - SP201,44.92820096,9.2629898
RUI012,RUI012,RUINO Tre Venti - SP201,44.92836883,9.26281376
RUI013,RUI013,RUINO Casa del Matto - SP201,44.9254505,9.25953249
RUI014,RUI014,RUINO Casa del Matto - SP201,44.92549057,9.25950685
RUI015,RUI015,RUINO S.Antonio - SP203,44.90496149,9.23682784
RUI016,RUI016,RUINO S.Antonio - SP203,44.90478695,9.23687622
RZA001,RZA001,RIVANAZZANO Marconi/Diviani (Bivio Salice Terme),44.92123618,9.03061623
RZA002,RZA002,RIVANAZZANO Della Repubblica/Mandelli (Terme),44.9315201,9.01355883
RZA003,RZA003,RIVANAZZANO Della Repubblica/Bellocchio,44.92796814,9.01501625
RZA004,RZA004,RIVANAZZANO Della Repubblica/Bellocchio,44.92791202,9.01489332
RZA005,RZA005,RIVANAZZANO Marconi/Da Vinci,44.92904382,9.02117436
RZA006,RZA006,RIVANAZZANO Marconi/Da Vinci,44.92905784,9.02121247
RZA007,RZA007,RIVANAZZANO Europa/Pertini,44.93264359,9.01354834
RZA008,RZA008,RIVANAZZANO Europa/Bagnolo,44.93388207,9.01323697
RZA009,RZA009,RIVANAZZANO Cornaggia (Municipio),44.92980152,9.01725212
RZA010,RZA010,RIVANAZZANO Cornaggia (Municipio),44.92986863,9.01705091
RZA011,RZA011,RIVANAZZANO Marconi (Sottostazione),44.91524204,9.04024233
RZA012,RZA012,RIVANAZZANO Marconi (Sottostazione),44.91431615,9.04126757
RZA013,RZA013,RIVANAZZANO Pellico/Mazzini,44.93124119,9.01547361
RZA014,RZA014,RIVANAZZANO Pellico/Brugnatelli,44.93115906,9.01542683
RZA015,RZA015,RIVANAZZANO Leidi/Cornaggia (Posta),44.92952132,9.01684003
RZA016,RZA016,RIVANAZZANO Diviani (Piscina Lido),44.91967487,9.03031627
RZA017,RZA017,RIVANAZZANO Diviani (Piscina Lido),44.91959631,9.03050775
RZA018,RZA018,RIVANAZZANO Europa/Caifango,44.94035927,9.01236059
RZA019,RZA019,RIVANAZZANO Europa/Caifango,44.94016385,9.01271424
RZA020,RZA020,RIVANAZZANO Europa/Molinetti,44.94546887,9.01178196
RZA021,RZA021,RIVANAZZANO Europa/Molinetti,44.9454706,9.01200796
RZA022,RZA022,RIVANAZZANO Europa/Baracca (Aeroporto),44.95219739,9.01076135
RZA023,RZA023,RIVANAZZANO Europa/Baracca (Aeroporto),44.9515833,9.01127223
RZA024,RZA024,RIVANAZZANO XX Settembre/Malaspina (Scuole),44.92992078,9.0126824
RZA025,RZA025,RIVANAZZANO Colombo/Guttuso,44.92222051,9.01848685
RZA026,RZA026,RIVANAZZANO Colombo/Guttuso,44.92238628,9.01849965
RZA027,RZA027,RIVANAZZANO Colombo/Pelizza da Volpedo,44.91953617,9.02069187
RZA028,RZA028,RIVANAZZANO Colombo/Giotto,44.91955783,9.0207834
RZA030,RZA030,RIVANAZZANO Fermi/Delle Terme,44.9166638,9.02264068
RZA031,RZA031,RIVANAZZANO XX Settembre/De Amicis (Scuole),44.92991558,9.01257436
RZA032,RZA032,RIVANAZZANO Marconi/Diviani (Bivio Salice Terme),44.92116691,9.03100821
RZZ684,RZZ684,ROZZANO G. S. Bernardo/Strada 5,45.39640123,9.14828818
RZZ686,RZZ686,ROZZANO G.S.Bernardo/Strada 8,45.39601658,9.15013252
SCB001,SCB001,S.CRISTINA BISSONE Bissone - Trento/Castello,45.1428249,9.42354779
SCB002,SCB002,S.CRISTINA BISSONE Bissone - Trento/Castello,45.14334327,9.42367059
SCB003,SCB003,"S.CRISTINA BISSONE Fiume, 55",45.15902949,9.3932632
SCB004,SCB004,"S.CRISTINA BISSONE Fiume, 55",45.1587879,9.39344795
SCB005,SCB005,S.CRISTINA BISSONE Po/Caduti per la Libertà,45.15730259,9.40397708
SCB006,SCB006,S.CRISTINA BISSONE Po/Caduti per la Libertà,45.15713629,9.4046163
SCB007,SCB007,S.CRISTINA BISSONE Vittorio Veneto/Gibelli,45.15721619,9.39877969
SCB008,SCB008,S.CRISTINA BISSONE Vittorio Veneto/Pertini,45.1572699,9.39856973
SDC001,SDC001,"S.DAMIANO AL COLLE Braccio - SP189, 2",45.03595913,9.35997333
SDC002,SDC002,"S.DAMIANO AL COLLE Braccio - SP189, 2",45.03592759,9.35990883
SDC003,SDC003,S.DAMIANO AL COLLE Casalunga - SP43,45.03226672,9.35499754
SDC004,SDC004,S.DAMIANO AL COLLE Casalunga - SP43,45.03239572,9.35502787
SDC005,SDC005,S.DAMIANO AL COLLE Marconi/Oliva (Chiesa),45.02672244,9.34841681
SDC007,SDC007,S.DAMIANO AL COLLE Boffalora - SP43,45.02328899,9.3398182
SDC010,SDC010,S.DAMIANO AL COLLE Marconi (Bivio Villa Marone),45.02396669,9.34380703
SDC011,SDC011,S.DAMIANO AL COLLE Marconi/Oliva (Chiesa),45.02628788,9.3476747
SGG001,SGG001,S.GIORGIO LOMELLINA Corti (Municipio),45.17384211,8.79068871
SGG002,SGG002,S.GIORGIO LOMELLINA Corti (Municipio),45.17389745,8.79085326
SGG005,SGG005,S.GIORGIO LOMELLINA Botta/IV Novembre,45.17726386,8.79041234
SGG006,SGG006,S.GIORGIO LOMELLINA Botta/IV Novembre,45.17740512,8.79048754
SGG007,SGG007,S.GIORGIO LOMELLINA Corti/Verdi (Chiesa),45.17416679,8.79096281
SGG008,SGG008,S.GIORGIO LOMELLINA Corti/Verdi (Chiesa),45.17414584,8.79107567
SGT001,SGT001,SANTA GIULETTA SP10 Emilia - Case Orto,45.03151872,9.17206339
SGT002,SGT002,SANTA GIULETTA Manzo - SP10 Emilia/Mondini,45.03767132,9.19502893
SGT004,SGT004,SANTA GIULETTA SP10 Emilia/S.Re,45.03573776,9.18186242
SGT005,SGT005,SANTA GIULETTA SP10 Emilia/Setti,45.03569532,9.18193118
SGT006,SGT006,"SANTA GIULETTA SP10 Emilia, 34",45.03350488,9.17660183
SGT008,SGT008,SANTA GIULETTA SP10 Emilia - Case Orto,45.03190097,9.1732354
SGT009,SGT009,SANTA GIULETTA Manzo - SP10 Emilia/Mondini,45.0378644,9.19501614
SGU001,SGU001,S.GENESIO UNITI P.ta Pescarina/Di Vittorio,45.22991467,9.18160376
SGU002,SGU002,S.GENESIO UNITI P.ta Pescarina/Due Porte,45.23231455,9.18250881
SGU003,SGU003,S.GENESIO UNITI I Maggio/Comunale,45.23585446,9.17705369
SGU004,SGU004,S.GENESIO UNITI Carola,45.23531107,9.17463818
SGU005,SGU005,S.GENESIO UNITI I Maggio/Comunale,45.23580005,9.17677947
SGU006,SGU006,S.GENESIO UNITI Trieste/Milano,45.23533994,9.1791325
SGU007,SGU007,S.GENESIO UNITI Riviera (Municipio),45.23362457,9.17959921
SGU008,SGU008,S.GENESIO UNITI Riviera/P.ta Pescarina,45.23257779,9.1821064
